{
    "dataSources": ["<a href=\"https://datawarehouse.hrsa.gov/\" target=\"_blank\">U.S. HHS Health Resources & Services Administration</a>, Feb 2018; <a href=\"https://www.kff.org/other/state-indicator/total-population/?currentTimeframe=0&sortModel=%7B%22colId%22:%22Location%22,%22sort%22:%22asc%22%7D\" target=\"_blank\">Kaiser Family Foundation</a>, 2016."],
    "description": "Mississippi has one of the highest uninsured rates in the U.S. at 12%, representing about 350,000 people. Health Centers are federally funded, community-based and patient-directed organizations that serve populations with limited access to health care, including low-income populations, and the uninsured. Read more about Health Centers <a href=\"https://www.bphc.hrsa.gov/about/what-is-a-health-center/index.html\" target=\"_blank\">here</a>. Use this map to explore how accessible these centers are for target populations.",
    "subtitle": "HCSDs heavily support vulnerable populations",
    "state": "ms",
    "name": "Health Centers in Mississippi",
    "providers": [
        {
            "address": "102 S Martin Luther King Jr Dr, Indianola, MS 38751",
            "lat": 33.45603884,
            "lng": -90.63234665,
            "languages": [],
            "name": "Indianola Satellite",
            "center_type": "Service Delivery Site"
        },
        {
            "address": "110 E Washington St, Moorhead, MS 38761",
            "lat": 33.45016187,
            "lng": -90.50639666,
            "languages": [],
            "name": "DELTA HEALTH CENTER SATELLITE",
            "center_type": "Service Delivery Site"
        },
        {
            "address": "102 Blackmur Dr, Water Valley, MS 38965",
            "lat": 34.15018962,
            "lng": -89.63151944,
            "languages": [],
            "name": "Family Health Care Clinic, Inc. -- Water Valley",
            "center_type": "Service Delivery Site"
        },
        {
            "address": "3439 Vaughan Rd, Vaughan, MS 39179",
            "lat": 32.85061026,
            "lng": -90.02877129,
            "languages": [],
            "name": "LINWOOD ELEMENTARY SCHOOL",
            "center_type": "Service Delivery Site"
        },
        {
            "address": "1825 Dr Martin Luther King Jr Dr, Yazoo City, MS 39194",
            "lat": 32.87882152,
            "lng": -90.41119686,
            "languages": [],
            "name": "YAZOO CITY HIGH SCHOOL",
            "center_type": "Service Delivery Site"
        },
        {
            "address": "215 E Fifth St, Yazoo City, MS 39194",
            "lat": 32.85661296,
            "lng": -90.40920602,
            "languages": [],
            "name": "WOOLFOLK ELEM SCHOOL CLINIC",
            "center_type": "Service Delivery Site"
        },
        {
            "address": "10340 Highway 433 W, Bentonia, MS 39040",
            "lat": 32.64074293,
            "lng": -90.4036797,
            "languages": [],
            "name": "Bentonia Gibbs Elementary Schools",
            "center_type": "Service Delivery Site"
        },
        {
            "address": "110 N Jerry Clower Blvd, Yazoo City, MS 39194",
            "lat": 32.84059297,
            "lng": -90.38696514,
            "languages": [],
            "name": "G.A. CARMICHAEL FHC-YAZOO CITY",
            "center_type": "Service Delivery Site"
        },
        {
            "address": "6789 Highway 49 E, Yazoo City, MS 39194",
            "lat": 32.93490533,
            "lng": -90.37185879,
            "languages": [],
            "name": "YAZOO COUNTY HIGH SCHOOL",
            "center_type": "Service Delivery Site"
        },
        {
            "address": "1547 Jerry Clower Blvd, Yazoo City, MS 39194",
            "lat": 32.8648667,
            "lng": -90.39384549,
            "languages": [],
            "name": "G.A. CARMICHAEL FAMILY HLTH CTR",
            "center_type": "Service Delivery Site"
        },
        {
            "address": "1835 School Dr, Yazoo City, MS 39194",
            "lat": 32.87499733,
            "lng": -90.41530453,
            "languages": [],
            "name": "MCCOY ELEMENTARY SCHOOL",
            "center_type": "Service Delivery Site"
        },
        {
            "address": "622 E Fourth St, Yazoo City, MS 39194",
            "lat": 32.85340392,
            "lng": -90.40444389,
            "languages": [],
            "name": "Webster Elementary School",
            "center_type": "Service Delivery Site"
        },
        {
            "address": "3502 W Northside Dr, Jackson, MS 39213",
            "lat": 32.35604546,
            "lng": -90.23412295,
            "languages": [],
            "name": "Jackson-Hinds Medical Mobile Unit 3",
            "center_type": "Service Delivery Site"
        },
        {
            "address": "235 W Beasley St, Terry, MS 39170",
            "lat": 32.0934047,
            "lng": -90.29979346,
            "languages": [],
            "name": "Terry High School-based Clinic",
            "center_type": "Service Delivery Site"
        },
        {
            "address": "1134 Winter St, Jackson, MS 39204",
            "lat": 32.29097794,
            "lng": -90.2051178,
            "languages": [],
            "name": "CENTRAL MISSISSIPPI HEALTH SERVICES, INC.",
            "center_type": "Administrative/Service Delivery Site"
        },
        {
            "address": "6608 Highway 27, Utica, MS 39175",
            "lat": 32.19730679,
            "lng": -90.64800533,
            "languages": [],
            "name": "JACKSON HINDS COMP HEALTH CENTER UTICA-WIC Warehouse",
            "center_type": "Administrative/Service Delivery Site"
        },
        {
            "address": "5429 Robinson Road Ext, Jackson, MS 39204",
            "lat": 32.27707808,
            "lng": -90.26041502,
            "languages": [],
            "name": "CENTRAL MISSISSIPPI HLTH SERVICE",
            "center_type": "Service Delivery Site"
        },
        {
            "address": "145 Raymond Rd, Jackson, MS 39204",
            "lat": 32.28283906,
            "lng": -90.21062405,
            "languages": [],
            "name": "Jackson-Hinds Comprehensive Health Center South Clinic",
            "center_type": "Service Delivery Site"
        },
        {
            "address": "260 Highway 18, Utica, MS 39175",
            "lat": 32.10395785,
            "lng": -90.61533218,
            "languages": [],
            "name": "UTICA ELEMENTARY SCHOOL",
            "center_type": "Service Delivery Site"
        },
        {
            "address": "129 White Oak St, Utica, MS 39175",
            "lat": 32.10853195,
            "lng": -90.62274493,
            "languages": [],
            "name": "Jackson-Hinds Utica Clinic",
            "center_type": "Service Delivery Site"
        },
        {
            "address": "866 Medical Plz, Jackson, MS 39204",
            "lat": 32.28169427,
            "lng": -90.21735901,
            "languages": [],
            "name": "JACKSON HINDS COMP HEALTH CENTER - Administration/Billing",
            "center_type": "Administrative/Service Delivery Site"
        },
        {
            "address": "3502 W Northside Dr, Jackson, MS 39213",
            "lat": 32.35604546,
            "lng": -90.23412295,
            "languages": [],
            "name": "Jackson-Hinds Medical/Dental Mobile Unit 2",
            "center_type": "Service Delivery Site"
        },
        {
            "address": "1655 Whiting Rd, Jackson, MS 39209",
            "lat": 32.30042315,
            "lng": -90.26588631,
            "languages": [],
            "name": "JACKSON-HINDS VAN WINKLE ELEM SCHOOLBASE CLINIC",
            "center_type": "Service Delivery Site"
        },
        {
            "address": "3930 Skyview Dr, Jackson, MS 39213",
            "lat": 32.34671411,
            "lng": -90.22007377,
            "languages": [],
            "name": "Commonwealth Apartment Complex",
            "center_type": "Service Delivery Site"
        },
        {
            "address": "9700 W Highway 20, Bolton, MS 39041",
            "lat": 32.36245203,
            "lng": -90.49429451,
            "languages": [],
            "name": "BOLTON-EDWARDS ELEM/MIDDLE SBC",
            "center_type": "Service Delivery Site"
        },
        {
            "address": "1716 Isable St, Jackson, MS 39204",
            "lat": 32.29213996,
            "lng": -90.21848125,
            "languages": [],
            "name": "JACKSON-HINDS-ISABLE ELEMENTARY SCHOOL SBHC",
            "center_type": "Service Delivery Site"
        },
        {
            "address": "2009 Byram Bulldog Blvd, Terry, MS 39170",
            "lat": 32.19049651,
            "lng": -90.31340298,
            "languages": [],
            "name": "Byram Middle School-based Clinic",
            "center_type": "Service Delivery Site"
        },
        {
            "address": "3502 W Northside Dr, Jackson, MS 39213",
            "lat": 32.35604546,
            "lng": -90.23412295,
            "languages": [],
            "name": "JACKSON HINDS CHC MOBILE CLINIC 1",
            "center_type": "Service Delivery Site"
        },
        {
            "address": "7255 Gary Rd, Byram, MS 39272",
            "lat": 32.18628258,
            "lng": -90.29676044,
            "languages": [],
            "name": "Gary Road Intermediate School",
            "center_type": "Service Delivery Site"
        },
        {
            "address": "350 W Woodrow Wilson Ave, Jackson, MS 39213",
            "lat": 32.32691545,
            "lng": -90.19577397,
            "languages": [],
            "name": "Jackson-Hinds Comprehensive Health Center at the Jackson Medical Mall",
            "center_type": "Service Delivery Site"
        },
        {
            "address": "2185 Fortune St, Jackson, MS 39204",
            "lat": 32.2903265,
            "lng": -90.21864157,
            "languages": [],
            "name": "JACKSON-HINDS JIM HILL HIGH SCHOOL SBHC",
            "center_type": "Service Delivery Site"
        },
        {
            "address": "3502 W Northside Dr, Jackson, MS 39213",
            "lat": 32.35604546,
            "lng": -90.23412295,
            "languages": [],
            "name": "CENTRAL MS CIVIC IMPROVEMENT ASSOC., INC.D/B/A JACKSON-HINDS COMPREHENSIVE HEATLH CENTER MAIN SITE",
            "center_type": "Administrative/Service Delivery Site"
        },
        {
            "address": "1860 Chadwick Dr Ste 254, Jackson, MS 39204",
            "lat": 32.2869565,
            "lng": -90.25603289,
            "languages": [],
            "name": "Jackson Hinds Central Mississippi Medical Center Site",
            "center_type": "Service Delivery Site"
        },
        {
            "address": "7241 Gary Rd, Byram, MS 39272",
            "lat": 32.18881003,
            "lng": -90.29675086,
            "languages": [],
            "name": "Gary Road Elementary School",
            "center_type": "Service Delivery Site"
        },
        {
            "address": "415 Claiborne Ave, Jackson, MS 39209",
            "lat": 32.31422961,
            "lng": -90.222645,
            "languages": [],
            "name": "Pecan Park Elementary School-Based Clinic",
            "center_type": "Service Delivery Site"
        },
        {
            "address": "S Magnolia St, Edwards, MS 39066",
            "lat": 32.33185298,
            "lng": -90.60510502,
            "languages": [],
            "name": "Jackson-HInds Comprehensive Health Center Edwards Site",
            "center_type": "Service Delivery Site"
        },
        {
            "address": "386 Raymond Rd, Jackson, MS 39204",
            "lat": 32.28303351,
            "lng": -90.21749091,
            "languages": [],
            "name": "The Village Apartment Complex",
            "center_type": "Service Delivery Site"
        },
        {
            "address": "33795 Highway 12 W, Durant, MS 39063",
            "lat": 33.08980791,
            "lng": -89.86500601,
            "languages": [],
            "name": "DURANT CLINIC",
            "center_type": "Service Delivery Site"
        },
        {
            "address": "300 Yazoo St, Lexington, MS 39095",
            "lat": 33.10897321,
            "lng": -90.05284406,
            "languages": [],
            "name": "Lexington Pediatric Complex",
            "center_type": "Administrative/Service Delivery Site"
        },
        {
            "address": "17280 Highway 17, Lexington, MS 39095",
            "lat": 33.10438081,
            "lng": -90.05353963,
            "languages": [],
            "name": "DR ARENIA C. MALLORY CHC, INC.",
            "center_type": "Service Delivery Site"
        },
        {
            "address": "96 Rockport Rd, Lexington, MS 39095",
            "lat": 33.14056073,
            "lng": -90.06551721,
            "languages": [],
            "name": "Mallory Community Health Center School Based Clinics - William Dean Elementary School",
            "center_type": "Service Delivery Site"
        },
        {
            "address": "9715 Highway 12, Tchula, MS 39169",
            "lat": 33.11808512,
            "lng": -90.26551828,
            "languages": [],
            "name": "TCHULA CLINIC",
            "center_type": "Service Delivery Site"
        },
        {
            "address": "116 N Hayden St, Belzoni, MS 39038",
            "lat": 33.17691735,
            "lng": -90.48885054,
            "languages": [],
            "name": "HAYDEN STREET SATELLITE CLINIC",
            "center_type": "Service Delivery Site"
        },
        {
            "address": "115 Court St, Mayersville, MS 39113",
            "lat": 32.90214779,
            "lng": -91.05296282,
            "languages": [],
            "name": "Mayersville Satellite",
            "center_type": "Service Delivery Site"
        },
        {
            "address": "1732 Commerce St, Grenada, MS 38901",
            "lat": 33.76510431,
            "lng": -89.80889506,
            "languages": [],
            "name": "Family Health Care Clinic, Inc.--Grenada",
            "center_type": "Service Delivery Site"
        },
        {
            "address": "1102 Telegraph St, Grenada, MS 38901",
            "lat": 33.78209078,
            "lng": -89.81635587,
            "languages": [],
            "name": "Family Health Care Clinic, Grenada--Head Start",
            "center_type": "Service Delivery Site"
        },
        {
            "address": "1100 Rosa Fort St, Tunica, MS 38676",
            "lat": 34.70238121,
            "lng": -90.37510712,
            "languages": [],
            "name": "AARON E HENRY - TUNICA SCHOOL BASED CLINIC",
            "center_type": "Service Delivery Site"
        },
        {
            "address": "1820 Peabody St, Tunica, MS 38676",
            "lat": 34.67880552,
            "lng": -90.37762183,
            "languages": [],
            "name": "AARON E. HENRY - TUNICA CLINIC",
            "center_type": "Service Delivery Site"
        },
        {
            "address": "216 Highway 51 N, Batesville, MS 38606",
            "lat": 34.31603728,
            "lng": -89.94332197,
            "languages": [],
            "name": "AARON E. HENRY - BATESVILLE AMBULATORY CARE CLINIC",
            "center_type": "Service Delivery Site"
        },
        {
            "address": "20400 Highway 61, Rolling Fork, MS 39159",
            "lat": 32.90946657,
            "lng": -90.87000666,
            "languages": [],
            "name": "Rolling Fork Satellite",
            "center_type": "Service Delivery Site"
        },
        {
            "address": "1362 Martin Luther King Dr, Marks, MS 38646",
            "lat": 34.24163441,
            "lng": -90.27756639,
            "languages": [],
            "name": "Aaron E Henry - Quitman School Base Clinic",
            "center_type": "Service Delivery Site"
        },
        {
            "address": "123 N Front St, Winona, MS 38967",
            "lat": 33.4824246,
            "lng": -89.72765137,
            "languages": [],
            "name": "Family Health Care Clinics, Inc. --Winona",
            "center_type": "Service Delivery Site"
        },
        {
            "address": "620 Carrollton St, Duck Hill, MS 38925",
            "lat": 33.63051992,
            "lng": -89.7193106,
            "languages": [],
            "name": "Family Health Care Clinic, Duckhill--Head Start",
            "center_type": "Service Delivery Site"
        },
        {
            "address": "201 E Washington St, Greenwood, MS 38930",
            "lat": 33.52005011,
            "lng": -90.17986926,
            "languages": [],
            "name": "Greenwood Clinic",
            "center_type": "Service Delivery Site"
        },
        {
            "address": "199 Rimmer St, Walnut Grove, MS 39189",
            "lat": 32.59559286,
            "lng": -89.46221291,
            "languages": [],
            "name": "WALNUT GROVE MEDICAL CLINIC",
            "center_type": "Service Delivery Site"
        },
        {
            "address": "1668 W Peace St, Canton, MS 39046",
            "lat": 32.60319343,
            "lng": -90.07714525,
            "languages": [],
            "name": "G. A. CARMICHAEL FAMILY HEALTH CENTER",
            "center_type": "Service Delivery Site"
        },
        {
            "address": "500 W County Line Rd, Tougaloo, MS 39174",
            "lat": 32.40041111,
            "lng": -90.15762027,
            "languages": [],
            "name": "CENTRAL MS HLTH SVS - TOUGALOO",
            "center_type": "Service Delivery Site"
        },
        {
            "address": "500 W County Line Rd, Tougaloo, MS 39174",
            "lat": 32.40041111,
            "lng": -90.15762027,
            "languages": [],
            "name": "JACKSON-HINDS TOUGALOO CLINIC",
            "center_type": "Service Delivery Site"
        },
        {
            "address": "529 Mace St, Canton, MS 39046",
            "lat": 32.62095835,
            "lng": -90.04871144,
            "languages": [],
            "name": "NICHOLS SCHOOL HEALTH CENTER",
            "center_type": "Service Delivery Site"
        },
        {
            "address": "740 E Academy St, Canton, MS 39046",
            "lat": 32.61005549,
            "lng": -90.01715353,
            "languages": [],
            "name": "CANTON ELEMENTARY SCHOOL CLINIC",
            "center_type": "Service Delivery Site"
        },
        {
            "address": "634 Finney Rd, Canton, MS 39046",
            "lat": 32.62320329,
            "lng": -89.99187239,
            "languages": [],
            "name": "CANTON HIGH SCHOOL HEALTH CENTER",
            "center_type": "Service Delivery Site"
        },
        {
            "address": "276 Nissan Pkwy Bldg C, Canton, MS 39046",
            "lat": 32.58777759,
            "lng": -90.08062654,
            "languages": [],
            "name": "Mallory CHC - Women's Health Center",
            "center_type": "Service Delivery Site"
        },
        {
            "address": "2277 Main St, Fayette, MS 39069",
            "lat": 31.72243493,
            "lng": -91.05871993,
            "languages": [],
            "name": "JEFFERSON CNTY HIGH SCHOOL CLINI",
            "center_type": "Service Delivery Site"
        },
        {
            "address": "430 Highway 33, Fayette, MS 39069",
            "lat": 31.69931611,
            "lng": -91.07564111,
            "languages": [],
            "name": "JEFFERSON CNTY MID SCHOOL CLINIC",
            "center_type": "Service Delivery Site"
        },
        {
            "address": "405 Main St, Fayette, MS 39069",
            "lat": 31.70325388,
            "lng": -91.07452409,
            "languages": [],
            "name": "Jefferson Comprehensive Health Center",
            "center_type": "Service Delivery Site"
        },
        {
            "address": "2045 Highway 61 N, Port Gibson, MS 39150",
            "lat": 31.97711793,
            "lng": -90.97739589,
            "languages": [],
            "name": "CLAIBORNE COUNTY FAMILY HEALTH CENTER",
            "center_type": "Administrative/Service Delivery Site"
        },
        {
            "address": "880 Anthony St, Port Gibson, MS 39150",
            "lat": 31.9710824,
            "lng": -90.99795159,
            "languages": [],
            "name": "CCFHC-A.W. WATSON SBH",
            "center_type": "Service Delivery Site"
        },
        {
            "address": "548 Rosemary Rd, Cleveland, MS 38732",
            "lat": 33.76220077,
            "lng": -90.72834759,
            "languages": [],
            "name": "Delta Health Center Searcy Medical Center Satellite",
            "center_type": "Service Delivery Site"
        },
        {
            "address": "702 Ml King Dr, Mound Bayou, MS 38762",
            "lat": 33.87958369,
            "lng": -90.7261623,
            "languages": [],
            "name": "DELTA HEALTH CENTER, INC.",
            "center_type": "Administrative/Service Delivery Site"
        },
        {
            "address": "800 Ohio Ave, Clarksdale, MS 38614",
            "lat": 34.2034081,
            "lng": -90.55004452,
            "languages": [],
            "name": "Mobile Medical Unit #3",
            "center_type": "Service Delivery Site"
        },
        {
            "address": "800 Ohio Ave, Clarksdale, MS 38614",
            "lat": 34.2034081,
            "lng": -90.55004452,
            "languages": [],
            "name": "AARON E. HENRY - CLARKSDALE CLINIC",
            "center_type": "Service Delivery Site"
        },
        {
            "address": "510 Highway 322, Clarksdale, MS 38614",
            "lat": 34.18952041,
            "lng": -90.59577176,
            "languages": [],
            "name": "AARON E. HENRY COMMUNITY HEALTH SERVICES CENTER, INC.",
            "center_type": "Administrative"
        },
        {
            "address": "1555 Lee Dr, Clarksdale, MS 38614",
            "lat": 34.19833142,
            "lng": -90.60637422,
            "languages": [],
            "name": "Aaron E henry - Coahoma County School Base Clinic",
            "center_type": "Service Delivery Site"
        },
        {
            "address": "510 Highway 322, Clarksdale, MS 38614",
            "lat": 34.18952041,
            "lng": -90.59577176,
            "languages": [],
            "name": "AARON E. HENRY - MOBILE MEDICAL UNIT #1 (Old)",
            "center_type": "Service Delivery Site"
        },
        {
            "address": "550 Caldwell Dr, Hazlehurst, MS 39083",
            "lat": 31.87172237,
            "lng": -90.3977269,
            "languages": [],
            "name": "Copiah Comprehensive Health Complex",
            "center_type": "Service Delivery Site"
        },
        {
            "address": "S 4th St, Mount Olive, MS 39119",
            "lat": 31.76002342,
            "lng": -89.65677531,
            "languages": [],
            "name": "Mt. Olive Attendance Center",
            "center_type": "Service Delivery Site"
        },
        {
            "address": "1208 S Dogwood Ave, Collins, MS 39428",
            "lat": 31.63835533,
            "lng": -89.54791064,
            "languages": [],
            "name": "Collins High School",
            "center_type": "Service Delivery Site"
        },
        {
            "address": "824 Hopewell Rd, Collins, MS 39428",
            "lat": 31.72012388,
            "lng": -89.47144709,
            "languages": [],
            "name": "Hopewell Elementary School",
            "center_type": "Service Delivery Site"
        },
        {
            "address": "200 W Main St Bldg 3, Seminary, MS 39479",
            "lat": 31.56171916,
            "lng": -89.49859565,
            "languages": [],
            "name": "Seminary High School",
            "center_type": "Service Delivery Site"
        },
        {
            "address": "401 N Dogwood Ave, Collins, MS 39428",
            "lat": 31.64683213,
            "lng": -89.56050881,
            "languages": [],
            "name": "Collins Elementary School",
            "center_type": "Service Delivery Site"
        },
        {
            "address": "200 W Main St Bldg 2, Seminary, MS 39479",
            "lat": 31.56171916,
            "lng": -89.49859565,
            "languages": [],
            "name": "Seminary Middle School",
            "center_type": "Service Delivery Site"
        },
        {
            "address": "200 W Main St, Seminary, MS 39479",
            "lat": 31.56171916,
            "lng": -89.49859565,
            "languages": [],
            "name": "Seminary Elementary School",
            "center_type": "Service Delivery Site"
        },
        {
            "address": "100 Highway 535, Seminary, MS 39479",
            "lat": 31.56184518,
            "lng": -89.49252663,
            "languages": [],
            "name": "SEMINARY FAMILY HEALTH CENTER",
            "center_type": "Service Delivery Site"
        },
        {
            "address": "104 Carver Dr, Collins, MS 39428",
            "lat": 31.64611852,
            "lng": -89.56556856,
            "languages": [],
            "name": "Carver Middle School",
            "center_type": "Service Delivery Site"
        },
        {
            "address": "102 W Freedom Dr, Liberty, MS 39645",
            "lat": 31.16300529,
            "lng": -90.79469647,
            "languages": [],
            "name": "AMITE COUNTY MEDICAL SERVICES, INC.",
            "center_type": "Administrative/Service Delivery Site"
        },
        {
            "address": "102 W Freedom Dr, Liberty, MS 39645",
            "lat": 31.16300529,
            "lng": -90.79469647,
            "languages": [],
            "name": "ACMS Mobile Dental Unit",
            "center_type": "Service Delivery Site"
        },
        {
            "address": "102 W Freedom Dr, Liberty, MS 39645",
            "lat": 31.16300529,
            "lng": -90.79469647,
            "languages": [],
            "name": "ACMS Mobile Medical/Dental Unit 2",
            "center_type": "Service Delivery Site"
        },
        {
            "address": "102 W Freedom Dr, Liberty, MS 39645",
            "lat": 31.16300529,
            "lng": -90.79469647,
            "languages": [],
            "name": "LIBERTY DENTAL SERVICES",
            "center_type": "Service Delivery Site"
        },
        {
            "address": "101 Cottage Home Dr, Natchez, MS 39120",
            "lat": 31.57650333,
            "lng": -91.35350479,
            "languages": [],
            "name": "Morgantown Middle School",
            "center_type": "Service Delivery Site"
        },
        {
            "address": "145 Homochitto St, Natchez, MS 39120",
            "lat": 31.54588204,
            "lng": -91.39804619,
            "languages": [],
            "name": "ADAMS COUNTY FAMILY HLTH CTR",
            "center_type": "Service Delivery Site"
        },
        {
            "address": "170 Sgt Prentiss Dr, Natchez, MS 39120",
            "lat": 31.54230873,
            "lng": -91.37633455,
            "languages": [],
            "name": "Gilmer McLaurin Elementary School",
            "center_type": "Service Delivery Site"
        },
        {
            "address": "910 Second St, Prentiss, MS 39474",
            "lat": 31.59956624,
            "lng": -89.86509326,
            "languages": [],
            "name": "Family Health Care Clinic, Inc., --Prentiss",
            "center_type": "Service Delivery Site"
        },
        {
            "address": "J E Johnson Rd, Prentiss, MS 39474",
            "lat": 31.58737204,
            "lng": -89.85673452,
            "languages": [],
            "name": "Family Health Care Clinic, Prentiss--Head Start",
            "center_type": "Service Delivery Site"
        },
        {
            "address": "927 Kemper St, Scooba, MS 39358",
            "lat": 32.83089856,
            "lng": -88.47524976,
            "languages": [],
            "name": "Scooba Family Medical Center",
            "center_type": "Service Delivery Site"
        },
        {
            "address": "201 Birch St, De Kalb, MS 39328",
            "lat": 32.7806403,
            "lng": -88.67786604,
            "languages": [],
            "name": "KEMPER FAMILY MEDICAL CENTER",
            "center_type": "Service Delivery Site"
        },
        {
            "address": "2701 Davis St, Meridian, MS 39301",
            "lat": 32.3623537,
            "lng": -88.70578513,
            "languages": [],
            "name": "GREATER MERIDIAN HEALTH CLINIC, INC.",
            "center_type": "Administrative/Service Delivery Site"
        },
        {
            "address": "4000 10th St Bldg A, Meridian, MS 39307",
            "lat": 32.36716815,
            "lng": -88.71859607,
            "languages": [],
            "name": "GMHC, INC. / MPSD West End/TJ Harris Community School Based Clinic",
            "center_type": "Service Delivery Site"
        },
        {
            "address": "2701 Davis St, Meridian, MS 39301",
            "lat": 32.3623537,
            "lng": -88.70578513,
            "languages": [],
            "name": "GMHC Mobile Access Unit",
            "center_type": "Service Delivery Site"
        },
        {
            "address": "430 W Broad St, Monticello, MS 39654",
            "lat": 31.55530488,
            "lng": -90.111413,
            "languages": [],
            "name": "Family Health Care Clinic, Inc. --MONTICELLO",
            "center_type": "Service Delivery Site"
        },
        {
            "address": "202 Jefferson St, Newhebron, MS 39140",
            "lat": 31.73040697,
            "lng": -89.98014969,
            "languages": [],
            "name": "Family Health Care Clinic, Inc., --New Hebron",
            "center_type": "Service Delivery Site"
        },
        {
            "address": "309 N Pine Ave, Heidelberg, MS 39439",
            "lat": 31.89848858,
            "lng": -89.00333622,
            "languages": [],
            "name": "JASPER MEDICAL/DENTAL CLINIC",
            "center_type": "Service Delivery Site"
        },
        {
            "address": "290 Highway 51 N, Brookhaven, MS 39601",
            "lat": 31.58533725,
            "lng": -90.45658955,
            "languages": [],
            "name": "Family Health Care Clinic, Inc. --Brookhaven",
            "center_type": "Service Delivery Site"
        },
        {
            "address": "2506 Highway 51 SE, Bogue Chitto, MS 39629",
            "lat": 31.4295284,
            "lng": -90.46111484,
            "languages": [],
            "name": "Family Health Care Clinic, Bogue Chitto--Head Start",
            "center_type": "Service Delivery Site"
        },
        {
            "address": "10330 Road 375, Philadelphia, MS 39350",
            "lat": 32.75857774,
            "lng": -89.14378972,
            "languages": [],
            "name": "PHILADELPHIA HEALTH CENTER",
            "center_type": "Service Delivery Site"
        },
        {
            "address": "9431 Eastside Drive Ext Ste E, Newton, MS 39345",
            "lat": 32.35759739,
            "lng": -89.12865362,
            "languages": [],
            "name": "Newton Health Care",
            "center_type": "Service Delivery Site"
        },
        {
            "address": "67 Mulberry St, Shuqualak, MS 39361",
            "lat": 32.97943766,
            "lng": -88.56914328,
            "languages": [],
            "name": "SHUQUALAK/NOXUBEE HEALTH CENTER",
            "center_type": "Service Delivery Site"
        },
        {
            "address": "105 Felix Long St, Starkville, MS 39759",
            "lat": 33.46156634,
            "lng": -88.81830965,
            "languages": [],
            "name": "OKTIBBEHA FAMILY MEDICAL CENTER",
            "center_type": "Service Delivery Site"
        },
        {
            "address": "1307 Airport Rd N, Flowood, MS 39232",
            "lat": 32.33040065,
            "lng": -90.09121396,
            "languages": [],
            "name": "Family Health Care Clinic, Inc.- - Flowood",
            "center_type": "Service Delivery Site"
        },
        {
            "address": "1551 W Government St, Brandon, MS 39042",
            "lat": 32.28360736,
            "lng": -90.0216806,
            "languages": [],
            "name": "Family Health Care Clinic, Inc. --Brandon",
            "center_type": "Service Delivery Site"
        },
        {
            "address": "5096 US Hwy 49 South, Piney Woods, MS 39148",
            "lat": 32.06306,
            "lng": -89.99342999,
            "languages": [],
            "name": "Family Health Care Clinic, Piney Woods--School",
            "center_type": "Service Delivery Site"
        },
        {
            "address": "1205 Second St, Pelahatchie, MS 39145",
            "lat": 32.31583269,
            "lng": -89.7900677,
            "languages": [],
            "name": "Family Health Care Clinic --Pelahatchie",
            "center_type": "Service Delivery Site"
        },
        {
            "address": "4635 Highway 80 E, Pearl, MS 39208",
            "lat": 32.28354613,
            "lng": -90.0653101,
            "languages": [],
            "name": "Family Health Care Clinic, Inc. --PEARL",
            "center_type": "Service Delivery Site"
        },
        {
            "address": "MS-487, Walnut Grove, MS 39189",
            "lat": 32.573637,
            "lng": -89.33495624,
            "languages": [],
            "name": "SEBASTOPOL CLINIC",
            "center_type": "Service Delivery Site"
        },
        {
            "address": "1490 HWY 487, Sebastopol, MS 39359",
            "lat": 32.566569,
            "lng": -89.34311149,
            "languages": [],
            "name": "EAST CENTRAL MISSISSIPPI HEALTH CARE",
            "center_type": "Administrative"
        },
        {
            "address": "592 Schoolhouse Rd, Pinola, MS 39149",
            "lat": 31.87683675,
            "lng": -89.96126446,
            "languages": [],
            "name": "Family Health Care Clinic, Pinola--Head Start",
            "center_type": "Service Delivery Site"
        },
        {
            "address": "820 Johnson Lockhart Dr NE, Magee, MS 39111",
            "lat": 31.88306614,
            "lng": -89.72416178,
            "languages": [],
            "name": "Family Health Care Clinic, Magee--Head Start",
            "center_type": "Service Delivery Site"
        },
        {
            "address": "401 Main St N, Mendenhall, MS 39114",
            "lat": 31.96320728,
            "lng": -89.86939914,
            "languages": [],
            "name": "Family Health Care Clinic, Inc. --MENDENHALL",
            "center_type": "Service Delivery Site"
        },
        {
            "address": "213 CR-10, Taylorsville, MS 39168",
            "lat": 31.84836387,
            "lng": -89.39347643,
            "languages": [],
            "name": "Family Health Care Clinic, Taylorville1--Head Start",
            "center_type": "Service Delivery Site"
        },
        {
            "address": "531 Highway 28 E, Taylorsville, MS 39168",
            "lat": 31.82887984,
            "lng": -89.41937928,
            "languages": [],
            "name": "Family Health Center Taylorsville",
            "center_type": "Service Delivery Site"
        },
        {
            "address": "226 Whiteoak Ave, Raleigh, MS 39153",
            "lat": 32.03904461,
            "lng": -89.53256188,
            "languages": [],
            "name": "Family Health Care Clinic, Inc. --Raleigh",
            "center_type": "Service Delivery Site"
        },
        {
            "address": "125 School Rd, Mize, MS 39116",
            "lat": 31.86119484,
            "lng": -89.55226768,
            "languages": [],
            "name": "Family Health Care Clinic, Mize--School",
            "center_type": "Service Delivery Site"
        },
        {
            "address": "445 Main St E, Meadville, MS 39653",
            "lat": 31.47262604,
            "lng": -90.89419936,
            "languages": [],
            "name": "Family Health Care Clinic, Inc. --Meadville",
            "center_type": "Service Delivery Site"
        },
        {
            "address": "262 Pine St N, Bude, MS 39630",
            "lat": 31.46414346,
            "lng": -90.84223799,
            "languages": [],
            "name": "Family Health Care Clinic --Bude Head Start",
            "center_type": "Service Delivery Site"
        },
        {
            "address": "514 A-B East Woodrow Wilson, Jackson, MS 39216",
            "lat": 32.3359353,
            "lng": -90.17631999,
            "languages": [],
            "name": "Jackson-Hinds Comprehensive Health Center Woodrow Wilson Clinic",
            "center_type": "Service Delivery Site"
        },
        {
            "address": "427 J R Lynch St, Jackson, MS 39203",
            "lat": 32.29757146,
            "lng": -90.19320751,
            "languages": [],
            "name": "JACKSON-HINDS ETHEL JAMES IVORY HOMELESS CLINIC",
            "center_type": "Service Delivery Site"
        },
        {
            "address": "1495 US Highway 61 S, Woodville, MS 39669",
            "lat": 31.11913969,
            "lng": -91.28542655,
            "languages": [],
            "name": "Family Health Care Clinic, Inc. --Woodville",
            "center_type": "Service Delivery Site"
        },
        {
            "address": "1823 Highway 24 W, Woodville, MS 39669",
            "lat": 31.11411094,
            "lng": -91.31502308,
            "languages": [],
            "name": "Family Health Care Clinic, Woodville--Head Start",
            "center_type": "Service Delivery Site"
        },
        {
            "address": "130 E Lexie Rd, Tylertown, MS 39667",
            "lat": 31.07024477,
            "lng": -90.15979599,
            "languages": [],
            "name": "Family Health Care Clinic, Tylertown--Head Start",
            "center_type": "Service Delivery Site"
        },
        {
            "address": "113 Enochs St, Tylertown, MS 39667",
            "lat": 31.11361876,
            "lng": -90.14266263,
            "languages": [],
            "name": "Family Health Care Clinic, Inc. --Tylertown",
            "center_type": "Service Delivery Site"
        },
        {
            "address": "225 Saint Paul Rd, Tylertown, MS 39667",
            "lat": 31.17163516,
            "lng": -90.20856267,
            "languages": [],
            "name": "Family Health Care Clinic, Tylertown--Head Start",
            "center_type": "Service Delivery Site"
        },
        {
            "address": "300 Rawls Dr Ste 1300, Mccomb, MS 39648",
            "lat": 31.25121252,
            "lng": -90.47104787,
            "languages": [],
            "name": "Pike County Medical Services",
            "center_type": "Service Delivery Site"
        },
        {
            "address": "256 Main St, State Line, MS 39362",
            "lat": 31.43862711,
            "lng": -88.47626883,
            "languages": [],
            "name": "State Line Medical Center",
            "center_type": "Service Delivery Site"
        },
        {
            "address": "713 Lomax Ave, Waynesboro, MS 39367",
            "lat": 31.67758341,
            "lng": -88.64076495,
            "languages": [],
            "name": "Family Health Center, Inc.",
            "center_type": "Service Delivery Site"
        },
        {
            "address": "4770 Amoco Dr, Moss Point, MS 39563",
            "lat": 30.43691696,
            "lng": -88.53025651,
            "languages": [],
            "name": "MOSS POINT HEALTH CENTER",
            "center_type": "Service Delivery Site"
        },
        {
            "address": "10828 Highway 57, Vancleave, MS 39565",
            "lat": 30.50048616,
            "lng": -88.70355112,
            "languages": [],
            "name": "VANCLEAVE HEALTH CENTER",
            "center_type": "Service Delivery Site"
        },
        {
            "address": "4630 Magnolia St, Moss Point, MS 39563",
            "lat": 30.40749932,
            "lng": -88.54637608,
            "languages": [],
            "name": "Magnolia School Clinic",
            "center_type": "Service Delivery Site"
        },
        {
            "address": "4913 Weems St, Moss Point, MS 39563",
            "lat": 30.41319744,
            "lng": -88.54935582,
            "languages": [],
            "name": "Moss Point High Health Center",
            "center_type": "Service Delivery Site"
        },
        {
            "address": "1614 Williams Dr, Leakesville, MS 39451",
            "lat": 31.14889109,
            "lng": -88.56850643,
            "languages": [],
            "name": "Leakesville Dental Clinic",
            "center_type": "Service Delivery Site"
        },
        {
            "address": "620 Main St, Leakesville, MS 39451",
            "lat": 31.15666164,
            "lng": -88.5558081,
            "languages": [],
            "name": "Schoool Health Services-Leakesville Jr High Clinic",
            "center_type": "Service Delivery Site"
        },
        {
            "address": "300 Shows St, Mc Lain, MS 39456",
            "lat": 31.1113234,
            "lng": -88.82816608,
            "languages": [],
            "name": "School Health Services-McLain Attendance Center Clinic",
            "center_type": "Service Delivery Site"
        },
        {
            "address": "4336 High School Rd, Leakesville, MS 39451",
            "lat": 31.14086332,
            "lng": -88.60113591,
            "languages": [],
            "name": "School Health Services-Greene County High School Clinic",
            "center_type": "Service Delivery Site"
        },
        {
            "address": "1616 Williams Dr, Leakesville, MS 39451",
            "lat": 31.14888741,
            "lng": -88.56852748,
            "languages": [],
            "name": "Leakesville Medical Center",
            "center_type": "Service Delivery Site"
        },
        {
            "address": "39455 Highway 63 N, Richton, MS 39476",
            "lat": 31.34720224,
            "lng": -88.763188,
            "languages": [],
            "name": "School Health Services - Sand Hill School Clinic",
            "center_type": "Service Delivery Site"
        },
        {
            "address": "175 Annex Rd, Leakesville, MS 39451",
            "lat": 31.14502417,
            "lng": -88.5295028,
            "languages": [],
            "name": "School Health Services-Leakesville Elementary School Clinic",
            "center_type": "Service Delivery Site"
        },
        {
            "address": "109 Hospital Dr, Bay Saint Louis, MS 39520",
            "lat": 30.31547535,
            "lng": -89.35406913,
            "languages": [],
            "name": "BAY ST. LOUIS HEALTH CENTER",
            "center_type": "Service Delivery Site"
        },
        {
            "address": "1046 Division St, Biloxi, MS 39530",
            "lat": 30.40354044,
            "lng": -88.90075224,
            "languages": [],
            "name": "COASTAL FAMILY HEALTH CENTER ADMINISTRATION",
            "center_type": "Administrative"
        },
        {
            "address": "15024 Martin Luther King Jr Blvd, Gulfport, MS 39501",
            "lat": 30.40405251,
            "lng": -89.08726033,
            "languages": [],
            "name": "GULFPORT HEALTH CENTER",
            "center_type": "Service Delivery Site"
        },
        {
            "address": "739 Division St, Biloxi, MS 39530",
            "lat": 30.40313692,
            "lng": -88.88702828,
            "languages": [],
            "name": "Medical/Dental Mobile Unit",
            "center_type": "Service Delivery Site"
        },
        {
            "address": "735 Division St, Biloxi, MS 39530",
            "lat": 30.40313616,
            "lng": -88.88696976,
            "languages": [],
            "name": "BILOXI PEDIATRIC HEALTH CENTER",
            "center_type": "Service Delivery Site"
        },
        {
            "address": "1025 Division St Ste A, Biloxi, MS 39530",
            "lat": 30.40339993,
            "lng": -88.89958317,
            "languages": [],
            "name": "Coastal Family Health Center Pharmacy",
            "center_type": "Administrative"
        },
        {
            "address": "9113 Highway 49, Gulfport, MS 39503",
            "lat": 30.41552671,
            "lng": -89.09312187,
            "languages": [],
            "name": "Coastal Family Health Center Pharmacy-Gulfport",
            "center_type": "Service Delivery Site"
        },
        {
            "address": "3446 Big Ridge Rd, Diberville, MS 39540",
            "lat": 30.44664648,
            "lng": -88.89763394,
            "languages": [],
            "name": "D' IBERVILLE HEALTH CENTER",
            "center_type": "Service Delivery Site"
        },
        {
            "address": "715A Division St, Biloxi, MS 39530",
            "lat": 30.40313233,
            "lng": -88.88667717,
            "languages": [],
            "name": "Biloxi Clinic",
            "center_type": "Service Delivery Site"
        },
        {
            "address": "23453 Central Dr, Saucier, MS 39574",
            "lat": 30.63020995,
            "lng": -89.13246726,
            "languages": [],
            "name": "SAUCIER HEALTH CENTER",
            "center_type": "Service Delivery Site"
        },
        {
            "address": "257 Davis Ave, Pass Christian, MS 39571",
            "lat": 30.31871311,
            "lng": -89.24309729,
            "languages": [],
            "name": "PASS CHRISTIAN HEALTH CENTER",
            "center_type": "Service Delivery Site"
        },
        {
            "address": "100 W Front St, Hattiesburg, MS 39401",
            "lat": 31.32620544,
            "lng": -89.28980391,
            "languages": [],
            "name": "HATTIESBURG FAMILY HEALTH CENTER DOWNTOWN",
            "center_type": "Service Delivery Site"
        },
        {
            "address": "44 Brooklyn Janice Rd, Brooklyn, MS 39425",
            "lat": 31.05861255,
            "lng": -89.18217725,
            "languages": [],
            "name": "BROOKLYN FAMILY HEALTH CENTER",
            "center_type": "Service Delivery Site"
        },
        {
            "address": "1179 Highway 42, Petal, MS 39465",
            "lat": 31.35049627,
            "lng": -89.20334336,
            "languages": [],
            "name": "Petal Elementary School",
            "center_type": "Service Delivery Site"
        },
        {
            "address": "62 Old Airport Rd, Hattiesburg, MS 39401",
            "lat": 31.27736309,
            "lng": -89.28174179,
            "languages": [],
            "name": "WOMEN'S HEALTH CENTER",
            "center_type": "Service Delivery Site"
        },
        {
            "address": "68 Old Airport Rd, Hattiesburg, MS 39401",
            "lat": 31.27736309,
            "lng": -89.28155489,
            "languages": [],
            "name": "HATTIESBURG COMMUNITY DENTAL CTR",
            "center_type": "Service Delivery Site"
        },
        {
            "address": "1145 Highway 42, Petal, MS 39465",
            "lat": 31.35049595,
            "lng": -89.20596156,
            "languages": [],
            "name": "Petal High School",
            "center_type": "Service Delivery Site"
        },
        {
            "address": "400 Hillcrest Loop, Petal, MS 39465",
            "lat": 31.3355816,
            "lng": -89.25838589,
            "languages": [],
            "name": "Petal Upper Elementary School",
            "center_type": "Service Delivery Site"
        },
        {
            "address": "64 Old Airport Rd, Hattiesburg, MS 39401",
            "lat": 31.27736309,
            "lng": -89.28167949,
            "languages": [],
            "name": "SeMRHI Support Services Center",
            "center_type": "Service Delivery Site"
        },
        {
            "address": "66 Old Airport Rd, Hattiesburg, MS 39401",
            "lat": 31.27740052,
            "lng": -89.28194399,
            "languages": [],
            "name": "HATTIESBURG FAMILY HEALTH CENTER",
            "center_type": "Service Delivery Site"
        },
        {
            "address": "203 Highway 42, Petal, MS 39465",
            "lat": 31.34671746,
            "lng": -89.25860249,
            "languages": [],
            "name": "Petal Middle School",
            "center_type": "Service Delivery Site"
        },
        {
            "address": "180 Wsf Tatum Drive Ext, Hattiesburg, MS 39401",
            "lat": 31.29471549,
            "lng": -89.29686452,
            "languages": [],
            "name": "N.R. Burger School and Community Clinic",
            "center_type": "Service Delivery Site"
        },
        {
            "address": "404 Lillie Burney St, Hattiesburg, MS 39401",
            "lat": 31.30373678,
            "lng": -89.3062988,
            "languages": [],
            "name": "Hattiesburg Public School and COMMUNITY CLINIC ",
            "center_type": "Service Delivery Site"
        },
        {
            "address": "36 Panther Stadium Dr, Petal, MS 39465",
            "lat": 31.35372569,
            "lng": -89.20243375,
            "languages": [],
            "name": "Petal School Clinic",
            "center_type": "Service Delivery Site"
        },
        {
            "address": "60 Herrington Rd, Petal, MS 39465",
            "lat": 31.35427439,
            "lng": -89.21333233,
            "languages": [],
            "name": "Petal Primary School",
            "center_type": "Service Delivery Site"
        },
        {
            "address": "5488 U S Highway 49, Hattiesburg, MS 39401",
            "lat": 31.28793758,
            "lng": -89.29984115,
            "languages": [],
            "name": "SOUTHEAST MISSISSIPPI RURAL HEALTH INITIATIVE, INC.",
            "center_type": "Administrative"
        },
        {
            "address": "605 Stadium Dr, Hattiesburg, MS 39401",
            "lat": 31.33190132,
            "lng": -89.30673957,
            "languages": [],
            "name": "HATTIESBURG High School & COMMUNITY CLIN.",
            "center_type": "Service Delivery Site"
        },
        {
            "address": "222 S 27th Ave, Hattiesburg, MS 39401",
            "lat": 31.32119716,
            "lng": -89.33005986,
            "languages": [],
            "name": "Minor Care Clinic",
            "center_type": "Service Delivery Site"
        },
        {
            "address": "1911 Read Rd, Picayune, MS 39466",
            "lat": 30.542166,
            "lng": -89.66260544,
            "languages": [],
            "name": "Picayune Family Health Center",
            "center_type": "Service Delivery Site"
        },
        {
            "address": "404 S Main St, New Augusta, MS 39462",
            "lat": 31.20172326,
            "lng": -89.03495188,
            "languages": [],
            "name": "NEW AUGUSTA FAMILY HEALTH CENTER",
            "center_type": "Service Delivery Site"
        },
        {
            "address": "1411 Bradley Ave, Beaumont, MS 39423",
            "lat": 31.1655507,
            "lng": -88.91972896,
            "languages": [],
            "name": "BEAUMONT FAMILY HEALTH CENTER",
            "center_type": "Service Delivery Site"
        },
        {
            "address": "628 Main St, Columbia, MS 39429",
            "lat": 31.25087488,
            "lng": -89.83424692,
            "languages": [],
            "name": "Family Health Care Clinic, Inc., --Columbia",
            "center_type": "Service Delivery Site"
        },
        {
            "address": "431 Old Highway 13 S, Columbia, MS 39429",
            "lat": 31.14813065,
            "lng": -89.75118962,
            "languages": [],
            "name": "Family Health Care Clinic, Columbia--Head Start",
            "center_type": "Service Delivery Site"
        },
        {
            "address": "325 Kokomo Rd, Kokomo, MS 39643",
            "lat": 31.21095598,
            "lng": -90.00439656,
            "languages": [],
            "name": "Family Health Care Clinic, Kokomo--Head Start",
            "center_type": "Service Delivery Site"
        },
        {
            "address": "Williamsburg Rd, Bassfield, MS 39421",
            "lat": 31.42697739,
            "lng": -89.75186962,
            "languages": [],
            "name": "Family Health Care Clinic,  Bassfield2--Head Start",
            "center_type": "Service Delivery Site"
        },
        {
            "address": "1016 Highway 42, Sumrall, MS 39482",
            "lat": 31.41275078,
            "lng": -89.55690341,
            "languages": [],
            "name": "SUMRALL FAMILY HEALTH CENTER",
            "center_type": "Service Delivery Site"
        },
        {
            "address": "598 W 11th Ave, Lumberton, MS 39455",
            "lat": 30.99970996,
            "lng": -89.45791781,
            "languages": [],
            "name": "LUMBERTON FAMILY HEALTH CENTER",
            "center_type": "Service Delivery Site"
        },
        {
            "address": "117 S 11th Ave, Laurel, MS 39440",
            "lat": 31.68932285,
            "lng": -89.13993541,
            "languages": [],
            "name": "FAMILY HEALTH CENTER, INC.",
            "center_type": "Service Delivery Site"
        },
        {
            "address": "203 Broad St, Laurel, MS 39443",
            "lat": 31.78314507,
            "lng": -89.03666523,
            "languages": [],
            "name": "SANDERSVILLE HEALTH CENTER",
            "center_type": "Service Delivery Site"
        },
        {
            "address": "103 S 12th Ave, Laurel, MS 39440",
            "lat": 31.68917974,
            "lng": -89.14130023,
            "languages": [],
            "name": "FAMILY HEALTH CTR - OB/GYN Clinic",
            "center_type": "Service Delivery Site"
        },
        {
            "address": "130 S High St, Shubuta, MS 39360",
            "lat": 31.85967322,
            "lng": -88.69951951,
            "languages": [],
            "name": "SHUBUTA MEDICAL/DENTAL CLINIC",
            "center_type": "Service Delivery Site"
        },
        {
            "address": "130 S High St, Shubuta, MS 39360",
            "lat": 31.85967322,
            "lng": -88.69951951,
            "languages": [],
            "name": "OUTREACH HEALTH SERVICES, INC.",
            "center_type": "Administrative"
        },
        {
            "address": "1415 S Harper Rd, Corinth, MS 38834",
            "lat": 34.91859795,
            "lng": -88.49752501,
            "languages": [],
            "name": "Corinth Health Care Associates",
            "center_type": "Service Delivery Site"
        },
        {
            "address": "15921 Boundary Dr, Ashland, MS 38603",
            "lat": 34.82871107,
            "lng": -89.18937727,
            "languages": [],
            "name": "Benton Medical Center - North Benton County Health Care, Inc.",
            "center_type": "Service Delivery Site"
        },
        {
            "address": "15921 Boundary Dr, Ashland, MS 38603",
            "lat": 34.82871107,
            "lng": -89.18937727,
            "languages": [],
            "name": "Mobile Unit",
            "center_type": "Service Delivery Site"
        },
        {
            "address": "105 Legion Ave, Calhoun City, MS 38916",
            "lat": 33.87020859,
            "lng": -89.31704632,
            "languages": [],
            "name": "Family Health Care Clinic, Inc., Calhoun City",
            "center_type": "Service Delivery Site"
        },
        {
            "address": "125 Carter Dr, Calhoun City, MS 38916",
            "lat": 33.74172732,
            "lng": -89.37256405,
            "languages": [],
            "name": "Family Health Care Clinic, Calhoun City--Head Start",
            "center_type": "Service Delivery Site"
        },
        {
            "address": "106 Walker St, Houlka, MS 38850",
            "lat": 34.03748761,
            "lng": -89.02258879,
            "languages": [],
            "name": "Access Family Health Services - Houlka",
            "center_type": "Service Delivery Site"
        },
        {
            "address": "499 Gloster Creek Vlg, Tupelo, MS 38801",
            "lat": 34.25195621,
            "lng": -88.71896033,
            "languages": [],
            "name": "Access Family Health Services - Tupelo",
            "center_type": "Service Delivery Site"
        },
        {
            "address": "182 W Main St, Nettleton, MS 38858",
            "lat": 34.08913101,
            "lng": -88.62712653,
            "languages": [],
            "name": "Access Family Health Services - Nettleton",
            "center_type": "Service Delivery Site"
        },
        {
            "address": "154 Mount Pleasant Rd, Holly Springs, MS 38635",
            "lat": 34.95607407,
            "lng": -89.52585014,
            "languages": [],
            "name": "MT. PLEASANT FAMILY HLTH CLINIC",
            "center_type": "Service Delivery Site"
        },
        {
            "address": "34 Brunswick St, Byhalia, MS 38611",
            "lat": 34.87184459,
            "lng": -89.68820572,
            "languages": [],
            "name": "BYHALIA FAMILY DENTAL CLINIC",
            "center_type": "Service Delivery Site"
        },
        {
            "address": "12 Brunswick St, Byhalia, MS 38611",
            "lat": 34.8720004,
            "lng": -89.68820665,
            "languages": [],
            "name": "DBA BYHALIA FAMILY HEALTH CENTER",
            "center_type": "Administrative/Service Delivery Site"
        },
        {
            "address": "60021 Monroe St, Smithville, MS 38870",
            "lat": 34.07201954,
            "lng": -88.39488227,
            "languages": [],
            "name": "ACCESS Family Health Services - Smithville",
            "center_type": "Service Delivery Site"
        },
        {
            "address": "63450 Highway 25 N, Smithville, MS 38870",
            "lat": 34.06913339,
            "lng": -88.39587986,
            "languages": [],
            "name": "ACCESS Family Health Services Administrative Office",
            "center_type": "Administrative"
        },
        {
            "address": "60024 Olive St, Smithville, MS 38870",
            "lat": 34.06698883,
            "lng": -88.39376656,
            "languages": [],
            "name": "Access Family Dental Clinic",
            "center_type": "Service Delivery Site"
        },
        {
            "address": "353 Highway 15 N, Pontotoc, MS 38863",
            "lat": 34.26788611,
            "lng": -89.02053044,
            "languages": [],
            "name": "MississippiCare - 113",
            "center_type": "Service Delivery Site"
        },
        {
            "address": "208 N 1st St, Booneville, MS 38829",
            "lat": 34.65877416,
            "lng": -88.5645591,
            "languages": [],
            "name": "Booneville Community Health Center",
            "center_type": "Service Delivery Site"
        },
        {
            "address": "643 W Service Dr, Coldwater, MS 38618",
            "lat": 34.68735821,
            "lng": -89.97852737,
            "languages": [],
            "name": "M.J. Edwards Center",
            "center_type": "Service Delivery Site"
        },
        {
            "address": "749 S Line St, Ripley, MS 38663",
            "lat": 34.7236097,
            "lng": -88.95663055,
            "languages": [],
            "name": "Ripley Health Care Associates",
            "center_type": "Service Delivery Site"
        },
        {
            "address": "531 Main St, Walnut, MS 38683",
            "lat": 34.94460645,
            "lng": -88.90060176,
            "languages": [],
            "name": "WALNUT MEDICAL CENTER",
            "center_type": "Service Delivery Site"
        },
        {
            "address": "1310 Main St, Tishomingo, MS 38873",
            "lat": 34.63853743,
            "lng": -88.23202306,
            "languages": [],
            "name": "Tishomingo Health Care Associates",
            "center_type": "Service Delivery Site"
        },
        {
            "address": "7535 Airways Blvd, Southaven, MS 38671",
            "lat": 34.969356,
            "lng": -89.98993355,
            "languages": [],
            "name": "DeSoto Community Health Center",
            "center_type": "Service Delivery Site"
        },
        {
            "address": "5681 Highway 363, Mantachie, MS 38855",
            "lat": 34.32359429,
            "lng": -88.49070969,
            "languages": [],
            "name": "Mantachie Rural Health Care, Inc.",
            "center_type": "Administrative/Service Delivery Site"
        },
        {
            "address": "12725 Highway 23 N, Tremont, MS 38876",
            "lat": 34.23806532,
            "lng": -88.26258555,
            "languages": [],
            "name": "Access Family Health Services - Tremont",
            "center_type": "Service Delivery Site"
        },
        {
            "address": "5510 Highway 363, Mantachie, MS 38855",
            "lat": 34.32189858,
            "lng": -88.48865846,
            "languages": [],
            "name": "Mantachie Rural Health Care Behavioral Health Clinic",
            "center_type": "Service Delivery Site"
        },
        {
            "address": "5500 Highway 363, Mantachie, MS 38855",
            "lat": 34.32188686,
            "lng": -88.48864283,
            "languages": [],
            "name": "MANTACHIE RURAL HEALTH CARE, INC. DENTAL",
            "center_type": "Service Delivery Site"
        },
        {
            "address": "14130 Highway 15 S Ste D, Louisville, MS 39339",
            "lat": 33.0555582,
            "lng": -89.06471844,
            "languages": [],
            "name": "Winston County Family Medical Center",
            "center_type": "Service Delivery Site"
        },
        {
            "address": "232 Starlyn Ave, New Albany, MS 38652",
            "lat": 34.49728764,
            "lng": -89.03559854,
            "languages": [],
            "name": "New Albany Health Care Associates",
            "center_type": "Service Delivery Site"
        },
        {
            "address": "3312 Oak St, Vicksburg, MS 39180",
            "lat": 32.3281272,
            "lng": -90.89167269,
            "languages": [],
            "name": "JACKSON-HINDS TRI-COUNTY HEALTH GROUP SITE",
            "center_type": "Administrative"
        },
        {
            "address": "1203 Mission Park Dr, Vicksburg, MS 39180",
            "lat": 32.34065711,
            "lng": -90.86292729,
            "languages": [],
            "name": "JACKSON-HINDS VICKSBURG WARREN FAMILY HEALTH CARE CLINIC",
            "center_type": "Service Delivery Site"
        },
        {
            "address": "1414 Hospital St, Greenville, MS 38703",
            "lat": 33.41186047,
            "lng": -91.03480136,
            "languages": [],
            "name": "GREENVILLE SATELLITE CLINIC",
            "center_type": "Service Delivery Site"
        },
        {
            "address": "100 E Washington St, Hollandale, MS 38748",
            "lat": 33.16891388,
            "lng": -90.85375788,
            "languages": [],
            "name": "Hollandale Satellite",
            "center_type": "Service Delivery Site"
        },
        {
            "address": "2363 Highway 1 S, Greenville, MS 38701",
            "lat": 33.353082,
            "lng": -91.04151811,
            "languages": [],
            "name": "South Greenville Satellite",
            "center_type": "Service Delivery Site"
        }
    ],
    "serviceAreaIds": [
        "ms_adams_39069",
        "ms_adams_39120",
        "ms_adams_39121",
        "ms_adams_39122",
        "ms_adams_39165",
        "ms_adams_39190",
        "ms_adams_39661",
        "ms_alcorn_38674",
        "ms_alcorn_38683",
        "ms_alcorn_38829",
        "ms_alcorn_38833",
        "ms_alcorn_38834",
        "ms_alcorn_38835",
        "ms_alcorn_38846",
        "ms_alcorn_38865",
        "ms_amite_39631",
        "ms_amite_39633",
        "ms_amite_39638",
        "ms_amite_39645",
        "ms_amite_39652",
        "ms_amite_39653",
        "ms_amite_39657",
        "ms_amite_39664",
        "ms_amite_39666",
        "ms_amite_39669",
        "ms_attala_39045",
        "ms_attala_39051",
        "ms_attala_39067",
        "ms_attala_39079",
        "ms_attala_39090",
        "ms_attala_39108",
        "ms_attala_39160",
        "ms_attala_39171",
        "ms_attala_39176",
        "ms_attala_39192",
        "ms_attala_39350",
        "ms_attala_39745",
        "ms_attala_39747",
        "ms_attala_39772",
        "ms_benton_38603",
        "ms_benton_38610",
        "ms_benton_38629",
        "ms_benton_38633",
        "ms_benton_38635",
        "ms_benton_38642",
        "ms_benton_38647",
        "ms_benton_38650",
        "ms_benton_38659",
        "ms_benton_38683",
        "ms_bolivar_38614",
        "ms_bolivar_38703",
        "ms_bolivar_38720",
        "ms_bolivar_38725",
        "ms_bolivar_38726",
        "ms_bolivar_38730",
        "ms_bolivar_38732",
        "ms_bolivar_38740",
        "ms_bolivar_38746",
        "ms_bolivar_38756",
        "ms_bolivar_38759",
        "ms_bolivar_38762",
        "ms_bolivar_38764",
        "ms_bolivar_38769",
        "ms_bolivar_38772",
        "ms_bolivar_38773",
        "ms_bolivar_38774",
        "ms_bolivar_38781",
        "ms_calhoun_38839",
        "ms_calhoun_38850",
        "ms_calhoun_38851",
        "ms_calhoun_38864",
        "ms_calhoun_38878",
        "ms_calhoun_38913",
        "ms_calhoun_38914",
        "ms_calhoun_38915",
        "ms_calhoun_38916",
        "ms_calhoun_38922",
        "ms_calhoun_38929",
        "ms_calhoun_38951",
        "ms_calhoun_38961",
        "ms_calhoun_38965",
        "ms_calhoun_39744",
        "ms_carroll_38901",
        "ms_carroll_38917",
        "ms_carroll_38923",
        "ms_carroll_38925",
        "ms_carroll_38930",
        "ms_carroll_38940",
        "ms_carroll_38943",
        "ms_carroll_38947",
        "ms_carroll_38954",
        "ms_carroll_38967",
        "ms_carroll_39095",
        "ms_carroll_39176",
        "ms_carroll_39192",
        "ms_chickasaw_38850",
        "ms_chickasaw_38851",
        "ms_chickasaw_38858",
        "ms_chickasaw_38860",
        "ms_chickasaw_38863",
        "ms_chickasaw_38868",
        "ms_chickasaw_38877",
        "ms_chickasaw_38878",
        "ms_chickasaw_39730",
        "ms_chickasaw_39741",
        "ms_chickasaw_39751",
        "ms_chickasaw_39756",
        "ms_chickasaw_39773",
        "ms_chickasaw_39776",
        "ms_choctaw_39108",
        "ms_choctaw_39339",
        "ms_choctaw_39735",
        "ms_choctaw_39744",
        "ms_choctaw_39745",
        "ms_choctaw_39747",
        "ms_choctaw_39750",
        "ms_choctaw_39752",
        "ms_choctaw_39769",
        "ms_choctaw_39772",
        "ms_claiborne_39083",
        "ms_claiborne_39086",
        "ms_claiborne_39096",
        "ms_claiborne_39144",
        "ms_claiborne_39150",
        "ms_claiborne_39175",
        "ms_clarke_39301",
        "ms_clarke_39307",
        "ms_clarke_39330",
        "ms_clarke_39347",
        "ms_clarke_39355",
        "ms_clarke_39360",
        "ms_clarke_39363",
        "ms_clarke_39366",
        "ms_clarke_39367",
        "ms_clarke_39439",
        "ms_clay_38851",
        "ms_clay_39741",
        "ms_clay_39750",
        "ms_clay_39751",
        "ms_clay_39755",
        "ms_clay_39756",
        "ms_clay_39773",
        "ms_clay_39776",
        "ms_coahoma_38614",
        "ms_coahoma_38617",
        "ms_coahoma_38626",
        "ms_coahoma_38631",
        "ms_coahoma_38639",
        "ms_coahoma_38643",
        "ms_coahoma_38645",
        "ms_coahoma_38646",
        "ms_coahoma_38669",
        "ms_coahoma_38720",
        "ms_coahoma_38738",
        "ms_coahoma_38739",
        "ms_coahoma_38740",
        "ms_coahoma_38767",
        "ms_coahoma_38774",
        "ms_coahoma_38963",
        "ms_coahoma_38964",
        "ms_copiah_39059",
        "ms_copiah_39077",
        "ms_copiah_39078",
        "ms_copiah_39083",
        "ms_copiah_39086",
        "ms_copiah_39144",
        "ms_copiah_39170",
        "ms_copiah_39175",
        "ms_copiah_39191",
        "ms_copiah_39668",
        "ms_covington_39111",
        "ms_covington_39116",
        "ms_covington_39119",
        "ms_covington_39168",
        "ms_covington_39401",
        "ms_covington_39402",
        "ms_covington_39421",
        "ms_covington_39428",
        "ms_covington_39479",
        "ms_covington_39482",
        "ms_desoto_38611",
        "ms_desoto_38618",
        "ms_desoto_38632",
        "ms_desoto_38637",
        "ms_desoto_38641",
        "ms_desoto_38651",
        "ms_desoto_38654",
        "ms_desoto_38664",
        "ms_desoto_38671",
        "ms_desoto_38672",
        "ms_desoto_38680",
        "ms_forrest_39401",
        "ms_forrest_39402",
        "ms_forrest_39403",
        "ms_forrest_39404",
        "ms_forrest_39425",
        "ms_forrest_39437",
        "ms_forrest_39455",
        "ms_forrest_39459",
        "ms_forrest_39464",
        "ms_forrest_39465",
        "ms_forrest_39475",
        "ms_forrest_39577",
        "ms_franklin_39069",
        "ms_franklin_39601",
        "ms_franklin_39630",
        "ms_franklin_39638",
        "ms_franklin_39645",
        "ms_franklin_39647",
        "ms_franklin_39653",
        "ms_franklin_39661",
        "ms_franklin_39664",
        "ms_franklin_39668",
        "ms_george_39452",
        "ms_george_39456",
        "ms_george_39565",
        "ms_george_39573",
        "ms_george_39577",
        "ms_greene_39362",
        "ms_greene_39423",
        "ms_greene_39451",
        "ms_greene_39452",
        "ms_greene_39456",
        "ms_greene_39461",
        "ms_greene_39476",
        "ms_grenada_38901",
        "ms_grenada_38902",
        "ms_grenada_38914",
        "ms_grenada_38920",
        "ms_grenada_38922",
        "ms_grenada_38925",
        "ms_grenada_38929",
        "ms_grenada_38940",
        "ms_grenada_38950",
        "ms_grenada_38953",
        "ms_grenada_38960",
        "ms_hancock_39426",
        "ms_hancock_39466",
        "ms_hancock_39470",
        "ms_hancock_39520",
        "ms_hancock_39521",
        "ms_hancock_39525",
        "ms_hancock_39556",
        "ms_hancock_39558",
        "ms_hancock_39571",
        "ms_hancock_39572",
        "ms_hancock_39573",
        "ms_hancock_39576",
        "ms_harrison_39501",
        "ms_harrison_39502",
        "ms_harrison_39503",
        "ms_harrison_39505",
        "ms_harrison_39506",
        "ms_harrison_39507",
        "ms_harrison_39530",
        "ms_harrison_39531",
        "ms_harrison_39532",
        "ms_harrison_39533",
        "ms_harrison_39534",
        "ms_harrison_39535",
        "ms_harrison_39540",
        "ms_harrison_39556",
        "ms_harrison_39560",
        "ms_harrison_39561",
        "ms_harrison_39571",
        "ms_harrison_39573",
        "ms_harrison_39574",
        "ms_hinds_39041",
        "ms_hinds_39056",
        "ms_hinds_39059",
        "ms_hinds_39060",
        "ms_hinds_39066",
        "ms_hinds_39071",
        "ms_hinds_39073",
        "ms_hinds_39086",
        "ms_hinds_39110",
        "ms_hinds_39154",
        "ms_hinds_39157",
        "ms_hinds_39170",
        "ms_hinds_39174",
        "ms_hinds_39175",
        "ms_hinds_39180",
        "ms_hinds_39201",
        "ms_hinds_39202",
        "ms_hinds_39203",
        "ms_hinds_39204",
        "ms_hinds_39205",
        "ms_hinds_39206",
        "ms_hinds_39207",
        "ms_hinds_39208",
        "ms_hinds_39209",
        "ms_hinds_39211",
        "ms_hinds_39212",
        "ms_hinds_39213",
        "ms_hinds_39215",
        "ms_hinds_39216",
        "ms_hinds_39225",
        "ms_hinds_39232",
        "ms_hinds_39236",
        "ms_hinds_39269",
        "ms_hinds_39272",
        "ms_hinds_39282",
        "ms_hinds_39283",
        "ms_hinds_39284",
        "ms_hinds_39286",
        "ms_hinds_39289",
        "ms_hinds_39296",
        "ms_holmes_38923",
        "ms_holmes_38924",
        "ms_holmes_39038",
        "ms_holmes_39063",
        "ms_holmes_39079",
        "ms_holmes_39095",
        "ms_holmes_39146",
        "ms_holmes_39169",
        "ms_holmes_39192",
        "ms_humphreys_38721",
        "ms_humphreys_38753",
        "ms_humphreys_38754",
        "ms_humphreys_39038",
        "ms_humphreys_39097",
        "ms_humphreys_39115",
        "ms_humphreys_39166",
        "ms_humphreys_39194",
        "ms_issaquena_38744",
        "ms_issaquena_38745",
        "ms_issaquena_39113",
        "ms_issaquena_39156",
        "ms_issaquena_39159",
        "ms_issaquena_39177",
        "ms_issaquena_39183",
        "ms_itawamba_38804",
        "ms_itawamba_38824",
        "ms_itawamba_38827",
        "ms_itawamba_38843",
        "ms_itawamba_38847",
        "ms_itawamba_38848",
        "ms_itawamba_38849",
        "ms_itawamba_38855",
        "ms_itawamba_38856",
        "ms_itawamba_38857",
        "ms_itawamba_38858",
        "ms_itawamba_38870",
        "ms_itawamba_38876",
        "ms_jackson_39452",
        "ms_jackson_39532",
        "ms_jackson_39540",
        "ms_jackson_39552",
        "ms_jackson_39553",
        "ms_jackson_39555",
        "ms_jackson_39562",
        "ms_jackson_39563",
        "ms_jackson_39564",
        "ms_jackson_39565",
        "ms_jackson_39566",
        "ms_jackson_39567",
        "ms_jackson_39568",
        "ms_jackson_39569",
        "ms_jackson_39573",
        "ms_jackson_39574",
        "ms_jackson_39581",
        "ms_jasper_39168",
        "ms_jasper_39330",
        "ms_jasper_39332",
        "ms_jasper_39336",
        "ms_jasper_39338",
        "ms_jasper_39345",
        "ms_jasper_39347",
        "ms_jasper_39348",
        "ms_jasper_39356",
        "ms_jasper_39366",
        "ms_jasper_39422",
        "ms_jasper_39439",
        "ms_jasper_39443",
        "ms_jasper_39480",
        "ms_jasper_39481",
        "ms_jefferson_39069",
        "ms_jefferson_39083",
        "ms_jefferson_39096",
        "ms_jefferson_39120",
        "ms_jefferson_39144",
        "ms_jefferson_39150",
        "ms_jefferson_39661",
        "ms_jefferson_39668",
        "ms_jefferson_davis_39111",
        "ms_jefferson_davis_39119",
        "ms_jefferson_davis_39140",
        "ms_jefferson_davis_39149",
        "ms_jefferson_davis_39421",
        "ms_jefferson_davis_39427",
        "ms_jefferson_davis_39428",
        "ms_jefferson_davis_39429",
        "ms_jefferson_davis_39474",
        "ms_jefferson_davis_39482",
        "ms_jefferson_davis_39656",
        "ms_jefferson_davis_39663",
        "ms_jones_39168",
        "ms_jones_39367",
        "ms_jones_39401",
        "ms_jones_39428",
        "ms_jones_39436",
        "ms_jones_39437",
        "ms_jones_39439",
        "ms_jones_39440",
        "ms_jones_39441",
        "ms_jones_39442",
        "ms_jones_39443",
        "ms_jones_39459",
        "ms_jones_39460",
        "ms_jones_39464",
        "ms_jones_39465",
        "ms_jones_39476",
        "ms_jones_39477",
        "ms_jones_39479",
        "ms_jones_39480",
        "ms_jones_39481",
        "ms_kemper_39305",
        "ms_kemper_39320",
        "ms_kemper_39325",
        "ms_kemper_39326",
        "ms_kemper_39328",
        "ms_kemper_39335",
        "ms_kemper_39350",
        "ms_kemper_39352",
        "ms_kemper_39354",
        "ms_kemper_39358",
        "ms_kemper_39361",
        "ms_kemper_39365",
        "ms_lafayette_38601",
        "ms_lafayette_38606",
        "ms_lafayette_38619",
        "ms_lafayette_38627",
        "ms_lafayette_38655",
        "ms_lafayette_38673",
        "ms_lafayette_38685",
        "ms_lafayette_38863",
        "ms_lafayette_38864",
        "ms_lafayette_38871",
        "ms_lafayette_38913",
        "ms_lafayette_38949",
        "ms_lafayette_38965",
        "ms_lamar_39401",
        "ms_lamar_39402",
        "ms_lamar_39429",
        "ms_lamar_39455",
        "ms_lamar_39475",
        "ms_lamar_39482",
        "ms_lauderdale_39301",
        "ms_lauderdale_39302",
        "ms_lauderdale_39303",
        "ms_lauderdale_39304",
        "ms_lauderdale_39305",
        "ms_lauderdale_39307",
        "ms_lauderdale_39320",
        "ms_lauderdale_39323",
        "ms_lauderdale_39325",
        "ms_lauderdale_39326",
        "ms_lauderdale_39328",
        "ms_lauderdale_39330",
        "ms_lauderdale_39335",
        "ms_lauderdale_39337",
        "ms_lauderdale_39342",
        "ms_lauderdale_39364",
        "ms_lawrence_39083",
        "ms_lawrence_39140",
        "ms_lawrence_39149",
        "ms_lawrence_39191",
        "ms_lawrence_39474",
        "ms_lawrence_39483",
        "ms_lawrence_39601",
        "ms_lawrence_39641",
        "ms_lawrence_39654",
        "ms_lawrence_39656",
        "ms_lawrence_39662",
        "ms_lawrence_39663",
        "ms_lawrence_39665",
        "ms_leake_39045",
        "ms_leake_39051",
        "ms_leake_39074",
        "ms_leake_39090",
        "ms_leake_39094",
        "ms_leake_39109",
        "ms_leake_39160",
        "ms_leake_39189",
        "ms_leake_39350",
        "ms_leake_39365",
        "ms_lee_38801",
        "ms_lee_38802",
        "ms_lee_38803",
        "ms_lee_38804",
        "ms_lee_38824",
        "ms_lee_38826",
        "ms_lee_38828",
        "ms_lee_38843",
        "ms_lee_38849",
        "ms_lee_38855",
        "ms_lee_38857",
        "ms_lee_38858",
        "ms_lee_38860",
        "ms_lee_38862",
        "ms_lee_38863",
        "ms_lee_38866",
        "ms_lee_38868",
        "ms_lee_38879",
        "ms_leflore_38736",
        "ms_leflore_38737",
        "ms_leflore_38761",
        "ms_leflore_38771",
        "ms_leflore_38778",
        "ms_leflore_38917",
        "ms_leflore_38924",
        "ms_leflore_38930",
        "ms_leflore_38935",
        "ms_leflore_38941",
        "ms_leflore_38944",
        "ms_leflore_38946",
        "ms_leflore_38950",
        "ms_leflore_38952",
        "ms_leflore_38954",
        "ms_leflore_39038",
        "ms_lincoln_39191",
        "ms_lincoln_39601",
        "ms_lincoln_39602",
        "ms_lincoln_39603",
        "ms_lincoln_39629",
        "ms_lincoln_39641",
        "ms_lincoln_39647",
        "ms_lincoln_39654",
        "ms_lincoln_39662",
        "ms_lincoln_39664",
        "ms_lincoln_39665",
        "ms_lincoln_39666",
        "ms_lincoln_39668",
        "ms_lowndes_39701",
        "ms_lowndes_39702",
        "ms_lowndes_39703",
        "ms_lowndes_39704",
        "ms_lowndes_39705",
        "ms_lowndes_39736",
        "ms_lowndes_39739",
        "ms_lowndes_39740",
        "ms_lowndes_39743",
        "ms_lowndes_39746",
        "ms_lowndes_39753",
        "ms_lowndes_39759",
        "ms_lowndes_39766",
        "ms_lowndes_39773",
        "ms_madison_39041",
        "ms_madison_39045",
        "ms_madison_39046",
        "ms_madison_39047",
        "ms_madison_39051",
        "ms_madison_39071",
        "ms_madison_39079",
        "ms_madison_39110",
        "ms_madison_39130",
        "ms_madison_39146",
        "ms_madison_39157",
        "ms_madison_39158",
        "ms_madison_39163",
        "ms_madison_39206",
        "ms_madison_39209",
        "ms_madison_39211",
        "ms_madison_39213",
        "ms_marion_39421",
        "ms_marion_39427",
        "ms_marion_39429",
        "ms_marion_39455",
        "ms_marion_39478",
        "ms_marion_39482",
        "ms_marion_39483",
        "ms_marion_39643",
        "ms_marion_39667",
        "ms_marshall_38611",
        "ms_marshall_38618",
        "ms_marshall_38633",
        "ms_marshall_38634",
        "ms_marshall_38635",
        "ms_marshall_38642",
        "ms_marshall_38647",
        "ms_marshall_38649",
        "ms_marshall_38654",
        "ms_marshall_38659",
        "ms_marshall_38661",
        "ms_marshall_38679",
        "ms_marshall_38685",
        "ms_monroe_38821",
        "ms_monroe_38825",
        "ms_monroe_38844",
        "ms_monroe_38848",
        "ms_monroe_38858",
        "ms_monroe_38860",
        "ms_monroe_38868",
        "ms_monroe_38870",
        "ms_monroe_39730",
        "ms_monroe_39740",
        "ms_monroe_39746",
        "ms_monroe_39756",
        "ms_monroe_39773",
        "ms_montgomery_38901",
        "ms_montgomery_38925",
        "ms_montgomery_38943",
        "ms_montgomery_38967",
        "ms_montgomery_39176",
        "ms_montgomery_39745",
        "ms_montgomery_39747",
        "ms_montgomery_39767",
        "ms_neshoba_39051",
        "ms_neshoba_39325",
        "ms_neshoba_39337",
        "ms_neshoba_39346",
        "ms_neshoba_39350",
        "ms_neshoba_39354",
        "ms_neshoba_39365",
        "ms_newton_39057",
        "ms_newton_39092",
        "ms_newton_39189",
        "ms_newton_39307",
        "ms_newton_39323",
        "ms_newton_39325",
        "ms_newton_39327",
        "ms_newton_39330",
        "ms_newton_39332",
        "ms_newton_39336",
        "ms_newton_39337",
        "ms_newton_39338",
        "ms_newton_39345",
        "ms_newton_39365",
        "ms_noxubee_39328",
        "ms_noxubee_39339",
        "ms_noxubee_39341",
        "ms_noxubee_39354",
        "ms_noxubee_39358",
        "ms_noxubee_39361",
        "ms_noxubee_39701",
        "ms_noxubee_39739",
        "ms_oktibbeha_39701",
        "ms_oktibbeha_39735",
        "ms_oktibbeha_39741",
        "ms_oktibbeha_39743",
        "ms_oktibbeha_39750",
        "ms_oktibbeha_39752",
        "ms_oktibbeha_39755",
        "ms_oktibbeha_39759",
        "ms_oktibbeha_39760",
        "ms_oktibbeha_39762",
        "ms_oktibbeha_39769",
        "ms_oktibbeha_39773",
        "ms_panola_38606",
        "ms_panola_38619",
        "ms_panola_38620",
        "ms_panola_38621",
        "ms_panola_38643",
        "ms_panola_38646",
        "ms_panola_38655",
        "ms_panola_38658",
        "ms_panola_38665",
        "ms_panola_38666",
        "ms_panola_38668",
        "ms_panola_38670",
        "ms_panola_38927",
        "ms_panola_38965",
        "ms_pearl_river_39426",
        "ms_pearl_river_39429",
        "ms_pearl_river_39455",
        "ms_pearl_river_39457",
        "ms_pearl_river_39463",
        "ms_pearl_river_39466",
        "ms_pearl_river_39470",
        "ms_pearl_river_39573",
        "ms_perry_39401",
        "ms_perry_39423",
        "ms_perry_39425",
        "ms_perry_39452",
        "ms_perry_39456",
        "ms_perry_39462",
        "ms_perry_39464",
        "ms_perry_39465",
        "ms_perry_39476",
        "ms_perry_39577",
        "ms_pike_39629",
        "ms_pike_39635",
        "ms_pike_39641",
        "ms_pike_39645",
        "ms_pike_39648",
        "ms_pike_39649",
        "ms_pike_39652",
        "ms_pike_39657",
        "ms_pike_39662",
        "ms_pike_39666",
        "ms_pike_39667",
        "ms_pontotoc_38627",
        "ms_pontotoc_38655",
        "ms_pontotoc_38801",
        "ms_pontotoc_38804",
        "ms_pontotoc_38820",
        "ms_pontotoc_38826",
        "ms_pontotoc_38828",
        "ms_pontotoc_38841",
        "ms_pontotoc_38850",
        "ms_pontotoc_38860",
        "ms_pontotoc_38863",
        "ms_pontotoc_38864",
        "ms_pontotoc_38868",
        "ms_pontotoc_38869",
        "ms_pontotoc_38871",
        "ms_pontotoc_38874",
        "ms_prentiss_38625",
        "ms_prentiss_38663",
        "ms_prentiss_38824",
        "ms_prentiss_38829",
        "ms_prentiss_38833",
        "ms_prentiss_38838",
        "ms_prentiss_38843",
        "ms_prentiss_38855",
        "ms_prentiss_38856",
        "ms_prentiss_38859",
        "ms_prentiss_38865",
        "ms_prentiss_38873",
        "ms_prentiss_38880",
        "ms_quitman_38606",
        "ms_quitman_38617",
        "ms_quitman_38621",
        "ms_quitman_38622",
        "ms_quitman_38623",
        "ms_quitman_38626",
        "ms_quitman_38643",
        "ms_quitman_38645",
        "ms_quitman_38646",
        "ms_quitman_38670",
        "ms_quitman_38963",
        "ms_quitman_38964",
        "ms_rankin_39042",
        "ms_rankin_39043",
        "ms_rankin_39044",
        "ms_rankin_39047",
        "ms_rankin_39073",
        "ms_rankin_39094",
        "ms_rankin_39114",
        "ms_rankin_39117",
        "ms_rankin_39145",
        "ms_rankin_39148",
        "ms_rankin_39151",
        "ms_rankin_39161",
        "ms_rankin_39167",
        "ms_rankin_39170",
        "ms_rankin_39193",
        "ms_rankin_39202",
        "ms_rankin_39208",
        "ms_rankin_39218",
        "ms_rankin_39232",
        "ms_rankin_39288",
        "ms_rankin_39298",
        "ms_scott_39051",
        "ms_scott_39057",
        "ms_scott_39074",
        "ms_scott_39080",
        "ms_scott_39087",
        "ms_scott_39092",
        "ms_scott_39094",
        "ms_scott_39098",
        "ms_scott_39117",
        "ms_scott_39145",
        "ms_scott_39152",
        "ms_scott_39153",
        "ms_scott_39189",
        "ms_scott_39336",
        "ms_scott_39359",
        "ms_scott_39365",
        "ms_sharkey_38721",
        "ms_sharkey_38748",
        "ms_sharkey_39054",
        "ms_sharkey_39061",
        "ms_sharkey_39088",
        "ms_sharkey_39097",
        "ms_sharkey_39159",
        "ms_simpson_39042",
        "ms_simpson_39044",
        "ms_simpson_39059",
        "ms_simpson_39062",
        "ms_simpson_39073",
        "ms_simpson_39078",
        "ms_simpson_39082",
        "ms_simpson_39111",
        "ms_simpson_39114",
        "ms_simpson_39119",
        "ms_simpson_39140",
        "ms_simpson_39149",
        "ms_simpson_39153",
        "ms_smith_39042",
        "ms_smith_39074",
        "ms_smith_39092",
        "ms_smith_39111",
        "ms_smith_39116",
        "ms_smith_39117",
        "ms_smith_39119",
        "ms_smith_39145",
        "ms_smith_39152",
        "ms_smith_39153",
        "ms_smith_39168",
        "ms_smith_39338",
        "ms_smith_39422",
        "ms_stone_39452",
        "ms_stone_39455",
        "ms_stone_39470",
        "ms_stone_39561",
        "ms_stone_39573",
        "ms_stone_39574",
        "ms_stone_39577",
        "ms_sunflower_38614",
        "ms_sunflower_38732",
        "ms_sunflower_38736",
        "ms_sunflower_38737",
        "ms_sunflower_38738",
        "ms_sunflower_38748",
        "ms_sunflower_38751",
        "ms_sunflower_38753",
        "ms_sunflower_38754",
        "ms_sunflower_38756",
        "ms_sunflower_38759",
        "ms_sunflower_38761",
        "ms_sunflower_38762",
        "ms_sunflower_38768",
        "ms_sunflower_38771",
        "ms_sunflower_38773",
        "ms_sunflower_38774",
        "ms_sunflower_38778",
        "ms_sunflower_38941",
        "ms_sunflower_38963",
        "ms_sunflower_39038",
        "ms_tallahatchie_38614",
        "ms_tallahatchie_38643",
        "ms_tallahatchie_38658",
        "ms_tallahatchie_38737",
        "ms_tallahatchie_38901",
        "ms_tallahatchie_38920",
        "ms_tallahatchie_38921",
        "ms_tallahatchie_38927",
        "ms_tallahatchie_38928",
        "ms_tallahatchie_38940",
        "ms_tallahatchie_38944",
        "ms_tallahatchie_38948",
        "ms_tallahatchie_38950",
        "ms_tallahatchie_38953",
        "ms_tallahatchie_38957",
        "ms_tallahatchie_38961",
        "ms_tallahatchie_38962",
        "ms_tallahatchie_38963",
        "ms_tallahatchie_38964",
        "ms_tallahatchie_38966",
        "ms_tate_38602",
        "ms_tate_38611",
        "ms_tate_38618",
        "ms_tate_38619",
        "ms_tate_38632",
        "ms_tate_38635",
        "ms_tate_38638",
        "ms_tate_38665",
        "ms_tate_38668",
        "ms_tippah_38603",
        "ms_tippah_38610",
        "ms_tippah_38625",
        "ms_tippah_38629",
        "ms_tippah_38633",
        "ms_tippah_38650",
        "ms_tippah_38652",
        "ms_tippah_38663",
        "ms_tippah_38674",
        "ms_tippah_38683",
        "ms_tippah_38824",
        "ms_tippah_38829",
        "ms_tippah_38834",
        "ms_tippah_38865",
        "ms_tishomingo_38827",
        "ms_tishomingo_38833",
        "ms_tishomingo_38834",
        "ms_tishomingo_38838",
        "ms_tishomingo_38846",
        "ms_tishomingo_38847",
        "ms_tishomingo_38852",
        "ms_tishomingo_38873",
        "ms_tunica_38621",
        "ms_tunica_38626",
        "ms_tunica_38644",
        "ms_tunica_38664",
        "ms_tunica_38665",
        "ms_tunica_38670",
        "ms_tunica_38676",
        "ms_union_38610",
        "ms_union_38625",
        "ms_union_38627",
        "ms_union_38633",
        "ms_union_38650",
        "ms_union_38652",
        "ms_union_38659",
        "ms_union_38663",
        "ms_union_38804",
        "ms_union_38824",
        "ms_union_38828",
        "ms_union_38829",
        "ms_union_38841",
        "ms_union_38849",
        "ms_union_38871",
        "ms_walthall_39478",
        "ms_walthall_39483",
        "ms_walthall_39641",
        "ms_walthall_39643",
        "ms_walthall_39648",
        "ms_walthall_39657",
        "ms_walthall_39667",
        "ms_warren_39040",
        "ms_warren_39150",
        "ms_warren_39156",
        "ms_warren_39162",
        "ms_warren_39180",
        "ms_warren_39181",
        "ms_warren_39182",
        "ms_warren_39183",
        "ms_washington_38701",
        "ms_washington_38702",
        "ms_washington_38703",
        "ms_washington_38704",
        "ms_washington_38722",
        "ms_washington_38723",
        "ms_washington_38725",
        "ms_washington_38731",
        "ms_washington_38744",
        "ms_washington_38748",
        "ms_washington_38751",
        "ms_washington_38756",
        "ms_washington_38760",
        "ms_washington_38773",
        "ms_washington_38776",
        "ms_washington_38780",
        "ms_washington_38782",
        "ms_washington_39038",
        "ms_wayne_39322",
        "ms_wayne_39324",
        "ms_wayne_39360",
        "ms_wayne_39362",
        "ms_wayne_39367",
        "ms_wayne_39439",
        "ms_wayne_39443",
        "ms_wayne_39476",
        "ms_webster_38916",
        "ms_webster_39737",
        "ms_webster_39744",
        "ms_webster_39747",
        "ms_webster_39750",
        "ms_webster_39751",
        "ms_webster_39752",
        "ms_webster_39755",
        "ms_webster_39767",
        "ms_webster_39771",
        "ms_wilkinson_39631",
        "ms_wilkinson_39633",
        "ms_wilkinson_39638",
        "ms_wilkinson_39661",
        "ms_wilkinson_39669",
        "ms_winston_39090",
        "ms_winston_39108",
        "ms_winston_39339",
        "ms_winston_39341",
        "ms_winston_39346",
        "ms_winston_39350",
        "ms_winston_39354",
        "ms_winston_39735",
        "ms_winston_39739",
        "ms_winston_39769",
        "ms_winston_39772",
        "ms_yalobusha_38901",
        "ms_yalobusha_38914",
        "ms_yalobusha_38922",
        "ms_yalobusha_38927",
        "ms_yalobusha_38948",
        "ms_yalobusha_38953",
        "ms_yalobusha_38961",
        "ms_yalobusha_38965",
        "ms_yazoo_39039",
        "ms_yazoo_39040",
        "ms_yazoo_39046",
        "ms_yazoo_39088",
        "ms_yazoo_39095",
        "ms_yazoo_39146",
        "ms_yazoo_39159",
        "ms_yazoo_39162",
        "ms_yazoo_39169",
        "ms_yazoo_39173",
        "ms_yazoo_39179",
        "ms_yazoo_39194"
    ],
    "hint": ""
}
