{
    "dataSources": "TZ, tanzania_healthsites",
    "description": "Exploring access to healthcare in Tanzania using the Healthsites.io datataset. (as of March 2018)",
    "state": "tz",
    "name": "Tanzania - Healthsites.io",
    "providers": [
        {
            "address": "NA",
            "lat": -5.05716,
            "lng": 32.82869,
            "languages": [],
            "name": "202 KJ"
        },
        {
            "address": "NA",
            "lat": -6.88878,
            "lng": 39.15133,
            "languages": [],
            "name": "511 KJ GONGO LA MBOTO"
        },
        {
            "address": "NA",
            "lat": -2.58227,
            "lng": 32.91911,
            "languages": [],
            "name": "512 KJ"
        },
        {
            "address": "NA",
            "lat": -6.809073,
            "lng": 39.27917,
            "languages": [],
            "name": "909 DENTAL CENTRE"
        },
        {
            "address": "NA",
            "lat": -8.67632,
            "lng": 34.304,
            "languages": [],
            "name": "A AND A"
        },
        {
            "address": "NA",
            "lat": -8.67629975,
            "lng": 34.30385215,
            "languages": [],
            "name": "A And A"
        },
        {
            "address": "NA",
            "lat": -6.800753,
            "lng": 39.27466,
            "languages": [],
            "name": "AA&B"
        },
        {
            "address": "NA",
            "lat": -6.80064975,
            "lng": 39.2748204489908,
            "languages": [],
            "name": "AAB & R Clinic"
        },
        {
            "address": "NA",
            "lat": -3.37317,
            "lng": 36.7018,
            "languages": [],
            "name": "AAR"
        },
        {
            "address": "NA",
            "lat": -6.77726,
            "lng": 39.26071,
            "languages": [],
            "name": "AAR"
        },
        {
            "address": "NA",
            "lat": -3.3676887,
            "lng": 36.7070815778044,
            "languages": [],
            "name": "AAR Clinic"
        },
        {
            "address": "NA",
            "lat": -6.7784683,
            "lng": 39.257566,
            "languages": [],
            "name": "AAR Hospital"
        },
        {
            "address": "NA",
            "lat": -3.44194,
            "lng": 37.06679,
            "languages": [],
            "name": "AAR KIA"
        },
        {
            "address": "NA",
            "lat": -6.91034,
            "lng": 39.26977,
            "languages": [],
            "name": "AAR MBAGALA"
        },
        {
            "address": "NA",
            "lat": -6.788666,
            "lng": 39.221833,
            "languages": [],
            "name": "AAR SINZA"
        },
        {
            "address": "NA",
            "lat": -6.65972,
            "lng": 39.18128,
            "languages": [],
            "name": "AAR TEGETA"
        },
        {
            "address": "NA",
            "lat": -2.5226147,
            "lng": 32.9118016,
            "languages": [],
            "name": "AAR hospital, AAR hospital"
        },
        {
            "address": "NA",
            "lat": -6.81513,
            "lng": 39.27406,
            "languages": [],
            "name": "ABBAS MEDICAL CENTRE"
        },
        {
            "address": "NA",
            "lat": -6.75485,
            "lng": 38.9324,
            "languages": [],
            "name": "ACCESS"
        },
        {
            "address": "NA",
            "lat": -6.76675,
            "lng": 39.26138,
            "languages": [],
            "name": "ACCESS MEDICAL AND DIALYSIS CENTRE"
        },
        {
            "address": "NA",
            "lat": -6.773807,
            "lng": 39.233285,
            "languages": [],
            "name": "AFRICA SANA DENTAL"
        },
        {
            "address": "NA",
            "lat": -6.78639,
            "lng": 39.22538,
            "languages": [],
            "name": "AFYA"
        },
        {
            "address": "NA",
            "lat": -6.340138,
            "lng": 31.068905,
            "languages": [],
            "name": "AFYA"
        },
        {
            "address": "NA",
            "lat": -6.84474,
            "lng": 39.2261,
            "languages": [],
            "name": "AFYA BORA"
        },
        {
            "address": "NA",
            "lat": -6.75628,
            "lng": 39.09964,
            "languages": [],
            "name": "AFYA CARE"
        },
        {
            "address": "NA",
            "lat": -6.827736,
            "lng": 39.19782,
            "languages": [],
            "name": "AFYA CARE CHARITABLE"
        },
        {
            "address": "NA",
            "lat": -6.82778,
            "lng": 37.6674,
            "languages": [],
            "name": "AFYA SPECIALIZED CLINIC"
        },
        {
            "address": "NA",
            "lat": -7.947572,
            "lng": 31.617587,
            "languages": [],
            "name": "AFYA YAKO"
        },
        {
            "address": "NA",
            "lat": -3.37077,
            "lng": 36.68944,
            "languages": [],
            "name": "AGA KHAN"
        },
        {
            "address": "NA",
            "lat": -6.82926,
            "lng": 37.66494,
            "languages": [],
            "name": "AGA KHAN"
        },
        {
            "address": "NA",
            "lat": -6.725548,
            "lng": 39.214022,
            "languages": [],
            "name": "AGA KHAN"
        },
        {
            "address": "NA",
            "lat": -6.180008,
            "lng": 35.746365,
            "languages": [],
            "name": "AGA KHAN"
        },
        {
            "address": "NA",
            "lat": -7.78328,
            "lng": 35.69643,
            "languages": [],
            "name": "AGA KHAN"
        },
        {
            "address": "NA",
            "lat": -8.89303,
            "lng": 33.4414,
            "languages": [],
            "name": "AGHA KHAN"
        },
        {
            "address": "NA",
            "lat": -2.312,
            "lng": 32.542,
            "languages": [],
            "name": "AGHA KHAN"
        },
        {
            "address": "NA",
            "lat": -6.82734,
            "lng": 37.66318,
            "languages": [],
            "name": "AHMADIYYA"
        },
        {
            "address": "NA",
            "lat": -6.866646,
            "lng": 39.258316,
            "languages": [],
            "name": "AHUENI"
        },
        {
            "address": "NA",
            "lat": -1.512699,
            "lng": 33.802456,
            "languages": [],
            "name": "AIC NYASHO"
        },
        {
            "address": "NA",
            "lat": -1.51266745,
            "lng": 33.802325444865,
            "languages": [],
            "name": "AIC NYASHO Dispensary"
        },
        {
            "address": "NA",
            "lat": -3.37481,
            "lng": 36.69946,
            "languages": [],
            "name": "AICC"
        },
        {
            "address": "NA",
            "lat": -3.3751409,
            "lng": 36.6995444,
            "languages": [],
            "name": "AICC Hospital"
        },
        {
            "address": "NA",
            "lat": -2.01881,
            "lng": 33.872,
            "languages": [],
            "name": "AICT BUNDA"
        },
        {
            "address": "NA",
            "lat": -2.50528,
            "lng": 32.90121,
            "languages": [],
            "name": "AICT MAKONGORO"
        },
        {
            "address": "NA",
            "lat": -6.64019,
            "lng": 39.16375,
            "languages": [],
            "name": "AIF HUDUMA"
        },
        {
            "address": "NA",
            "lat": -6.87122,
            "lng": 39.20314,
            "languages": [],
            "name": "AIRPORT POLICE"
        },
        {
            "address": "NA",
            "lat": -6.862977,
            "lng": 39.206299,
            "languages": [],
            "name": "AIRPORT TANZANIA"
        },
        {
            "address": "NA",
            "lat": -6.868095,
            "lng": 39.19808,
            "languages": [],
            "name": "AIRWING 603 ATS"
        },
        {
            "address": "NA",
            "lat": -2.5203062,
            "lng": 32.9027168,
            "languages": [],
            "name": "AL Ijumaa hospital, AL Ijumaa hospital"
        },
        {
            "address": "NA",
            "lat": -6.818188,
            "lng": 39.275753,
            "languages": [],
            "name": "AL JUMAA"
        },
        {
            "address": "NA",
            "lat": -6.840399,
            "lng": 39.237449,
            "languages": [],
            "name": "AL KARIMU"
        },
        {
            "address": "NA",
            "lat": -3.36883,
            "lng": 37.3457,
            "languages": [],
            "name": "AL-EHSAA"
        },
        {
            "address": "NA",
            "lat": -2.312,
            "lng": 32.542,
            "languages": [],
            "name": "AL-IJUMAA"
        },
        {
            "address": "NA",
            "lat": -7.77281,
            "lng": 35.70111,
            "languages": [],
            "name": "ALAMANO"
        },
        {
            "address": "NA",
            "lat": -6.872698,
            "lng": 39.398248,
            "languages": [],
            "name": "ALARA"
        },
        {
            "address": "NA",
            "lat": -6.943301,
            "lng": 39.307638,
            "languages": [],
            "name": "ALEXIA"
        },
        {
            "address": "NA",
            "lat": -6.80408,
            "lng": 37.66922,
            "languages": [],
            "name": "ALJAMIH"
        },
        {
            "address": "NA",
            "lat": -6.77842,
            "lng": 37.76137,
            "languages": [],
            "name": "ALLIANCE ONE"
        },
        {
            "address": "NA",
            "lat": -7.46683,
            "lng": 36.51218,
            "languages": [],
            "name": "ALSHEIKH"
        },
        {
            "address": "NA",
            "lat": -6.82674,
            "lng": 39.25926,
            "languages": [],
            "name": "AMANA"
        },
        {
            "address": "NA",
            "lat": -11.21349,
            "lng": 37.45284,
            "languages": [],
            "name": "AMANI"
        },
        {
            "address": "NA",
            "lat": -11.24256,
            "lng": 36.25852,
            "languages": [],
            "name": "AMANI"
        },
        {
            "address": "NA",
            "lat": -5.10012,
            "lng": 38.63348,
            "languages": [],
            "name": "AMANI"
        },
        {
            "address": "NA",
            "lat": -6.160399,
            "lng": 35.760658,
            "languages": [],
            "name": "AMANI"
        },
        {
            "address": "NA",
            "lat": -9.94648,
            "lng": 34.89538,
            "languages": [],
            "name": "AMANI"
        },
        {
            "address": "NA",
            "lat": -2.51685,
            "lng": 32.90191,
            "languages": [],
            "name": "AMANI CHOGO"
        },
        {
            "address": "NA",
            "lat": -5.42361,
            "lng": 38.02162,
            "languages": [],
            "name": "AMANI HANDENI DISPENSARY"
        },
        {
            "address": "NA",
            "lat": -10.7472,
            "lng": 35.13534,
            "languages": [],
            "name": "AMANI MAKOLO"
        },
        {
            "address": "NA",
            "lat": -6.337284,
            "lng": 31.070345,
            "languages": [],
            "name": "AMEC"
        },
        {
            "address": "NA",
            "lat": -9.59996,
            "lng": 33.86665,
            "languages": [],
            "name": "AMEN"
        },
        {
            "address": "NA",
            "lat": -6.78339,
            "lng": 39.22297,
            "languages": [],
            "name": "AMENI"
        },
        {
            "address": "NA",
            "lat": -5.02433,
            "lng": 32.81594,
            "languages": [],
            "name": "AMUCTA"
        },
        {
            "address": "NA",
            "lat": -2.58523,
            "lng": 33.31083,
            "languages": [],
            "name": "ANAMID"
        },
        {
            "address": "NA",
            "lat": -6.928634,
            "lng": 39.128981,
            "languages": [],
            "name": "ANANDA MARGA"
        },
        {
            "address": "NA",
            "lat": -6.863498,
            "lng": 39.167459,
            "languages": [],
            "name": "ANE AFYA CARE"
        },
        {
            "address": "NA",
            "lat": -9.349925,
            "lng": 34.771376,
            "languages": [],
            "name": "ANGLICAN"
        },
        {
            "address": "NA",
            "lat": -9.483319,
            "lng": 33.8795,
            "languages": [],
            "name": "ANNE"
        },
        {
            "address": "NA",
            "lat": -3.31783,
            "lng": 37.41059,
            "languages": [],
            "name": "ANNE KIILU"
        },
        {
            "address": "NA",
            "lat": -6.977323,
            "lng": 39.212857,
            "languages": [],
            "name": "ANSA"
        },
        {
            "address": "NA",
            "lat": -6.73669,
            "lng": 39.22851,
            "languages": [],
            "name": "ANTONIO VERNA"
        },
        {
            "address": "NA",
            "lat": -6.888277,
            "lng": 39.118159,
            "languages": [],
            "name": "ARAFA AMANI"
        },
        {
            "address": "NA",
            "lat": -6.922286,
            "lng": 39.235579,
            "languages": [],
            "name": "ARAFA ANABA"
        },
        {
            "address": "NA",
            "lat": -6.875625,
            "lng": 39.266118,
            "languages": [],
            "name": "ARAFA AZIMIO"
        },
        {
            "address": "NA",
            "lat": -6.62874,
            "lng": 39.14956,
            "languages": [],
            "name": "ARAFA BOKO"
        },
        {
            "address": "NA",
            "lat": -7.004018,
            "lng": 39.078184,
            "languages": [],
            "name": "ARAFA CHANIKA"
        },
        {
            "address": "NA",
            "lat": -6.887388,
            "lng": 39.18879,
            "languages": [],
            "name": "ARAFA CHARITABLE KIPUNGUNI"
        },
        {
            "address": "NA",
            "lat": -6.822329,
            "lng": 39.302319,
            "languages": [],
            "name": "ARAFA FERRY"
        },
        {
            "address": "NA",
            "lat": -6.66752,
            "lng": 39.18769,
            "languages": [],
            "name": "ARAFA HURUMA"
        },
        {
            "address": "NA",
            "lat": -7.954202,
            "lng": 38.982116,
            "languages": [],
            "name": "ARAFA IKWIRIRI"
        },
        {
            "address": "NA",
            "lat": -7.546859,
            "lng": 39.131019,
            "languages": [],
            "name": "ARAFA JARIBU"
        },
        {
            "address": "NA",
            "lat": -6.913668,
            "lng": 39.272028,
            "languages": [],
            "name": "ARAFA KICHEMCHEM"
        },
        {
            "address": "NA",
            "lat": -6.868475,
            "lng": 39.241608,
            "languages": [],
            "name": "ARAFA KILAKALA"
        },
        {
            "address": "NA",
            "lat": -7.91785,
            "lng": 39.66385,
            "languages": [],
            "name": "ARAFA KILINDONI"
        },
        {
            "address": "NA",
            "lat": -6.843464,
            "lng": 39.322069,
            "languages": [],
            "name": "ARAFA KISIWANI"
        },
        {
            "address": "NA",
            "lat": -6.78898,
            "lng": 39.19297,
            "languages": [],
            "name": "ARAFA KONA"
        },
        {
            "address": "NA",
            "lat": -6.865963,
            "lng": 39.199649,
            "languages": [],
            "name": "ARAFA MAJUMBA SITA"
        },
        {
            "address": "NA",
            "lat": -6.927091,
            "lng": 39.265052,
            "languages": [],
            "name": "ARAFA MAPINDUZI"
        },
        {
            "address": "NA",
            "lat": -6.89674,
            "lng": 39.283081,
            "languages": [],
            "name": "ARAFA MBAGALA KUU"
        },
        {
            "address": "NA",
            "lat": -6.783336,
            "lng": 39.11571,
            "languages": [],
            "name": "ARAFA MBEZI"
        },
        {
            "address": "NA",
            "lat": -6.820831,
            "lng": 39.216935,
            "languages": [],
            "name": "ARAFA MOOD"
        },
        {
            "address": "NA",
            "lat": -6.7917,
            "lng": 39.24683,
            "languages": [],
            "name": "ARAFA MTOGOLE"
        },
        {
            "address": "NA",
            "lat": -6.79292,
            "lng": 39.18691,
            "languages": [],
            "name": "ARAFA MWANANCHI ."
        },
        {
            "address": "NA",
            "lat": -6.907995,
            "lng": 39.202497,
            "languages": [],
            "name": "ARAFA MZINGA"
        },
        {
            "address": "NA",
            "lat": -6.915506,
            "lng": 39.122823,
            "languages": [],
            "name": "ARAFA NEEMA"
        },
        {
            "address": "NA",
            "lat": -6.79208,
            "lng": 39.21271,
            "languages": [],
            "name": "ARAFA NHC"
        },
        {
            "address": "NA",
            "lat": -6.902758,
            "lng": 39.119109,
            "languages": [],
            "name": "ARAFA PUGU"
        },
        {
            "address": "NA",
            "lat": -6.918501,
            "lng": 39.270485,
            "languages": [],
            "name": "ARAFA RANGITATU"
        },
        {
            "address": "NA",
            "lat": -6.936655,
            "lng": 39.236989,
            "languages": [],
            "name": "ARAFA SAMA"
        },
        {
            "address": "NA",
            "lat": -6.844491,
            "lng": 39.196949,
            "languages": [],
            "name": "ARAFA SES CHARITABLE"
        },
        {
            "address": "NA",
            "lat": -6.78857,
            "lng": 39.22475,
            "languages": [],
            "name": "ARAFA SINZA"
        },
        {
            "address": "NA",
            "lat": -6.826625,
            "lng": 39.189662,
            "languages": [],
            "name": "ARAFA TEMBO MGWAZA"
        },
        {
            "address": "NA",
            "lat": -6.867199,
            "lng": 39.259083,
            "languages": [],
            "name": "ARAFA UGWENO"
        },
        {
            "address": "NA",
            "lat": -6.873623,
            "lng": 39.269289,
            "languages": [],
            "name": "ARAFA UMOJA"
        },
        {
            "address": "NA",
            "lat": -6.85673,
            "lng": 39.2625,
            "languages": [],
            "name": "ARAFA UPENDO"
        },
        {
            "address": "NA",
            "lat": -6.79392,
            "lng": 39.23314,
            "languages": [],
            "name": "ARAFA UZURI"
        },
        {
            "address": "NA",
            "lat": -6.62014,
            "lng": 39.11132,
            "languages": [],
            "name": "ARAFA VIGAENI"
        },
        {
            "address": "NA",
            "lat": -6.87034,
            "lng": 39.230881,
            "languages": [],
            "name": "ARAFA YOMBO RELINI"
        },
        {
            "address": "NA",
            "lat": -6.91362,
            "lng": 39.27055,
            "languages": [],
            "name": "ARAFA ZAKHEM"
        },
        {
            "address": "NA",
            "lat": -7.14991,
            "lng": 39.1803,
            "languages": [],
            "name": "ARAFA-KIPARANG'ANDA"
        },
        {
            "address": "NA",
            "lat": -6.76088,
            "lng": 39.07322,
            "languages": [],
            "name": "ARAFAT BASNA"
        },
        {
            "address": "NA",
            "lat": -2.3769,
            "lng": 35.50596,
            "languages": [],
            "name": "ARASH"
        },
        {
            "address": "NA",
            "lat": -5.04005,
            "lng": 32.826,
            "languages": [],
            "name": "ARDHI"
        },
        {
            "address": "NA",
            "lat": -6.82639,
            "lng": 37.67594,
            "languages": [],
            "name": "ARDHI INSTITUTE"
        },
        {
            "address": "NA",
            "lat": -6.76674,
            "lng": 39.213,
            "languages": [],
            "name": "ARDHI UNIVERSITY"
        },
        {
            "address": "NA",
            "lat": -3.24778,
            "lng": 36.1898,
            "languages": [],
            "name": "ARKATAN"
        },
        {
            "address": "NA",
            "lat": -4.24142,
            "lng": 35.58945,
            "languages": [],
            "name": "ARRI TSAAYO"
        },
        {
            "address": "NA",
            "lat": -3.3706,
            "lng": 36.786839,
            "languages": [],
            "name": "ARUMERU"
        },
        {
            "address": "NA",
            "lat": -3.37955,
            "lng": 36.70607,
            "languages": [],
            "name": "ARUSHA"
        },
        {
            "address": "NA",
            "lat": -3.36106,
            "lng": 36.68535,
            "languages": [],
            "name": "ARUSHA HOSPITAL FOR WOMEN"
        },
        {
            "address": "NA",
            "lat": -3.36626,
            "lng": 36.6823,
            "languages": [],
            "name": "ARUSHA LUTHERAN CENTER"
        },
        {
            "address": "NA",
            "lat": -3.37636,
            "lng": 36.698442,
            "languages": [],
            "name": "ARUSHA MED CENTRE"
        },
        {
            "address": "NA",
            "lat": -3.36579,
            "lng": 36.699,
            "languages": [],
            "name": "ARUSHA X-RAY CENTER"
        },
        {
            "address": "NA",
            "lat": -5.31823,
            "lng": 36.56773,
            "languages": [],
            "name": "ASAMATWA"
        },
        {
            "address": "NA",
            "lat": -5.734873,
            "lng": 35.72171,
            "languages": [],
            "name": "ASANJE"
        },
        {
            "address": "NA",
            "lat": -4.866151,
            "lng": 30.348197,
            "languages": [],
            "name": "ASANTE NYERERE"
        },
        {
            "address": "NA",
            "lat": -4.527112,
            "lng": 35.903687,
            "languages": [],
            "name": "ATTA"
        },
        {
            "address": "NA",
            "lat": -6.82779,
            "lng": 39.25728,
            "languages": [],
            "name": "AVIATION"
        },
        {
            "address": "NA",
            "lat": -6.809568,
            "lng": 39.276521,
            "languages": [],
            "name": "AVICEENA"
        },
        {
            "address": "NA",
            "lat": -3.35739,
            "lng": 35.689692,
            "languages": [],
            "name": "AYALABE"
        },
        {
            "address": "NA",
            "lat": -4.33594,
            "lng": 35.69565,
            "languages": [],
            "name": "AYASANDA"
        },
        {
            "address": "NA",
            "lat": -6.81638,
            "lng": 39.25362,
            "languages": [],
            "name": "AZANIA"
        },
        {
            "address": "NA",
            "lat": -11.17379,
            "lng": 37.2627,
            "languages": [],
            "name": "AZIMIO"
        },
        {
            "address": "NA",
            "lat": -5.03,
            "lng": 32.80929,
            "languages": [],
            "name": "AZIMIO"
        },
        {
            "address": "NA",
            "lat": -6.8028404,
            "lng": 39.2713058626417,
            "languages": [],
            "name": "Accidents and Emergencies (MOI)"
        },
        {
            "address": "NA",
            "lat": -1.14250115,
            "lng": 34.2231505804769,
            "languages": [],
            "name": "Added Panyakoo Dispensary"
        },
        {
            "address": "NA",
            "lat": -4.8853669,
            "lng": 29.6470212,
            "languages": [],
            "name": "Adventist, Adventist"
        },
        {
            "address": "NA",
            "lat": -6.8471054,
            "lng": 39.2268209,
            "languages": [],
            "name": "Afya Bora Health Service"
        },
        {
            "address": "NA",
            "lat": -6.84708605,
            "lng": 39.22688704102,
            "languages": [],
            "name": "Afya Bora Health Service"
        },
        {
            "address": "NA",
            "lat": -6.1646433,
            "lng": 39.189234,
            "languages": [],
            "name": "Afya Medical Centre"
        },
        {
            "address": "NA",
            "lat": -6.1800183,
            "lng": 35.7461,
            "languages": [],
            "name": "Aga Khan Hospital"
        },
        {
            "address": "NA",
            "lat": -2.522436,
            "lng": 32.9066557,
            "languages": [],
            "name": "Aga Khan Medical Center"
        },
        {
            "address": "NA",
            "lat": -8.8933768,
            "lng": 33.4417008,
            "languages": [],
            "name": "Aga Khan Medical Centre"
        },
        {
            "address": "NA",
            "lat": -7.7833552,
            "lng": 35.6964303,
            "languages": [],
            "name": "Agakhan Medical Centre"
        },
        {
            "address": "NA",
            "lat": -8.8932869,
            "lng": 33.4417731172291,
            "languages": [],
            "name": "Agha Khan Health Centre"
        },
        {
            "address": "NA",
            "lat": -3.3708525,
            "lng": 36.6897569967546,
            "languages": [],
            "name": "Agha Khan Hospital"
        },
        {
            "address": "NA",
            "lat": -6.17927,
            "lng": 39.2044761,
            "languages": [],
            "name": "Al Rahma Hospital"
        },
        {
            "address": "NA",
            "lat": -6.8208853,
            "lng": 39.2740287404933,
            "languages": [],
            "name": "Aljumaa Charitable Dispersary"
        },
        {
            "address": "NA",
            "lat": -6.8403968,
            "lng": 39.2375405527908,
            "languages": [],
            "name": "Allah Karim Dispensary"
        },
        {
            "address": "NA",
            "lat": -6.79781095,
            "lng": 39.2784729461791,
            "languages": [],
            "name": "Alpha Clinic"
        },
        {
            "address": "NA",
            "lat": -7.46672565,
            "lng": 36.5121907299987,
            "languages": [],
            "name": "Alsheikh"
        },
        {
            "address": "NA",
            "lat": -6.82637585,
            "lng": 39.2594846275622,
            "languages": [],
            "name": "Amana Hospital"
        },
        {
            "address": "NA",
            "lat": -9.94636525,
            "lng": 34.8954007750018,
            "languages": [],
            "name": "Amani"
        },
        {
            "address": "NA",
            "lat": -5.1001187,
            "lng": 38.633315,
            "languages": [],
            "name": "Amani"
        },
        {
            "address": "NA",
            "lat": -11.21340735,
            "lng": 37.452843796599,
            "languages": [],
            "name": "Amani Dispensary"
        },
        {
            "address": "NA",
            "lat": -5.0703409,
            "lng": 39.1050947,
            "languages": [],
            "name": "Ambulance Station"
        },
        {
            "address": "NA",
            "lat": -5.02403235,
            "lng": 32.8156787590902,
            "languages": [],
            "name": "Amucta"
        },
        {
            "address": "NA",
            "lat": -1.5044304,
            "lng": 33.8053896,
            "languages": [],
            "name": "Angaza Clinic Centre, Angaza Clinic Centre"
        },
        {
            "address": "NA",
            "lat": -6.7864333,
            "lng": 39.2514156,
            "languages": [],
            "name": "Angaza Mwananyamala Centre"
        },
        {
            "address": "NA",
            "lat": -6.8162836,
            "lng": 39.2540044,
            "languages": [],
            "name": "Arafa Charitable Dispensary"
        },
        {
            "address": "NA",
            "lat": -6.8207779,
            "lng": 39.2169485,
            "languages": [],
            "name": "Arafa Dispensary"
        },
        {
            "address": "NA",
            "lat": -6.8841294,
            "lng": 39.1702737,
            "languages": [],
            "name": "Arafa Dispensary, Arafa Dispensary"
        },
        {
            "address": "NA",
            "lat": -6.7920953,
            "lng": 39.2127433,
            "languages": [],
            "name": "Arafa Dispensary, Arafa Dispensary"
        },
        {
            "address": "NA",
            "lat": -6.81074425,
            "lng": 39.2583218,
            "languages": [],
            "name": "Arafa Fang Zhou Dispensary"
        },
        {
            "address": "NA",
            "lat": -6.7916589,
            "lng": 39.2407505,
            "languages": [],
            "name": "Arafa Mtogole Dispensary"
        },
        {
            "address": "NA",
            "lat": -6.8610087,
            "lng": 39.2621642,
            "languages": [],
            "name": "Arafa Upendo Health Centre"
        },
        {
            "address": "NA",
            "lat": -6.76668425,
            "lng": 39.2130998253387,
            "languages": [],
            "name": "Ardhi University Dispensary"
        },
        {
            "address": "NA",
            "lat": -6.8018491,
            "lng": 39.279496195603,
            "languages": [],
            "name": "Ariel Glaser Pediaric Aids Healthcare Initiative"
        },
        {
            "address": "NA",
            "lat": -6.8888214,
            "lng": 39.1514029,
            "languages": [],
            "name": "Army Hospital"
        },
        {
            "address": "NA",
            "lat": -6.8887946,
            "lng": 39.151391,
            "languages": [],
            "name": "Army Hospital - Health Dispensary"
        },
        {
            "address": "NA",
            "lat": -4.24142005,
            "lng": 35.5895989009726,
            "languages": [],
            "name": "Arri Tsaayo Dispensary"
        },
        {
            "address": "NA",
            "lat": -4.2413966,
            "lng": 35.5896015,
            "languages": [],
            "name": "Arri Tsaayo Dispensary"
        },
        {
            "address": "NA",
            "lat": -3.36642355,
            "lng": 36.6826712139794,
            "languages": [],
            "name": "Arusha Lutheran Medical Centre"
        },
        {
            "address": "NA",
            "lat": -6.8278469,
            "lng": 39.2573025,
            "languages": [],
            "name": "Aviation Dispensary"
        },
        {
            "address": "NA",
            "lat": -6.8278593,
            "lng": 39.2573418,
            "languages": [],
            "name": "Aviation Dispensary, Aviation Dispensary"
        },
        {
            "address": "NA",
            "lat": -6.8553992,
            "lng": 39.2561251,
            "languages": [],
            "name": "Ayi Clinic Natural Therapies"
        },
        {
            "address": "NA",
            "lat": -6.8163213,
            "lng": 39.2535094,
            "languages": [],
            "name": "Azania Dispensary"
        },
        {
            "address": "NA",
            "lat": -11.1738243,
            "lng": 37.2628772765583,
            "languages": [],
            "name": "Azimio Dispensary"
        },
        {
            "address": "NA",
            "lat": -5.02998865,
            "lng": 32.809091807958,
            "languages": [],
            "name": "Azimio Dispensary"
        },
        {
            "address": "NA",
            "lat": -5.626108,
            "lng": 35.703579,
            "languages": [],
            "name": "BABAYU"
        },
        {
            "address": "NA",
            "lat": -5.638693,
            "lng": 35.703269,
            "languages": [],
            "name": "BABAYU"
        },
        {
            "address": "NA",
            "lat": -3.23001,
            "lng": 33.519,
            "languages": [],
            "name": "BADI"
        },
        {
            "address": "NA",
            "lat": -3.60581,
            "lng": 33.99642,
            "languages": [],
            "name": "BADI"
        },
        {
            "address": "NA",
            "lat": -4.7721,
            "lng": 38.42585,
            "languages": [],
            "name": "BAGA"
        },
        {
            "address": "NA",
            "lat": -6.26231,
            "lng": 38.5443,
            "languages": [],
            "name": "BAGAMOYO"
        },
        {
            "address": "NA",
            "lat": -5.33036,
            "lng": 39.03235,
            "languages": [],
            "name": "BAGO"
        },
        {
            "address": "NA",
            "lat": -5.96258,
            "lng": 35.312075,
            "languages": [],
            "name": "BAHI"
        },
        {
            "address": "NA",
            "lat": -5.838564,
            "lng": 35.451911,
            "languages": [],
            "name": "BAHI MAKULU"
        },
        {
            "address": "NA",
            "lat": -5.94521,
            "lng": 35.312127,
            "languages": [],
            "name": "BAHI RC"
        },
        {
            "address": "NA",
            "lat": -7.68065,
            "lng": 31.55831,
            "languages": [],
            "name": "BAKWATA"
        },
        {
            "address": "NA",
            "lat": -3.82569,
            "lng": 32.60182,
            "languages": [],
            "name": "BAKWATA"
        },
        {
            "address": "NA",
            "lat": -2.59068,
            "lng": 33.43637,
            "languages": [],
            "name": "BAKWATA"
        },
        {
            "address": "NA",
            "lat": -3.58555,
            "lng": 30.71802,
            "languages": [],
            "name": "BAKWATA"
        },
        {
            "address": "NA",
            "lat": -3.83989,
            "lng": 32.60257,
            "languages": [],
            "name": "BAKWATA B NYASUBI"
        },
        {
            "address": "NA",
            "lat": -3.89708,
            "lng": 34.52769,
            "languages": [],
            "name": "BAKWATA BUKUNDI"
        },
        {
            "address": "NA",
            "lat": -3.46716,
            "lng": 31.89541,
            "languages": [],
            "name": "BAKWATA HURUMA"
        },
        {
            "address": "NA",
            "lat": -3.5243,
            "lng": 34.30728,
            "languages": [],
            "name": "BAKWATA MAGANZO"
        },
        {
            "address": "NA",
            "lat": -3.66767,
            "lng": 33.41753,
            "languages": [],
            "name": "BAKWATA MAJENGO"
        },
        {
            "address": "NA",
            "lat": -4.18819,
            "lng": 32.2451,
            "languages": [],
            "name": "BAKWATA MBIKA"
        },
        {
            "address": "NA",
            "lat": -3.6715,
            "lng": 33.4252,
            "languages": [],
            "name": "BAKWATA MUJAHIDINA"
        },
        {
            "address": "NA",
            "lat": -3.40915,
            "lng": 37.51853,
            "languages": [],
            "name": "BAKWATA NJIA PANDA"
        },
        {
            "address": "NA",
            "lat": -5.07968,
            "lng": 39.10202,
            "languages": [],
            "name": "BAKWATA STR. 11"
        },
        {
            "address": "NA",
            "lat": -3.67146,
            "lng": 33.42593,
            "languages": [],
            "name": "BAKWATA UHURU"
        },
        {
            "address": "NA",
            "lat": -6.868459,
            "lng": 39.246734,
            "languages": [],
            "name": "BAKWATA YOMBO DARAJANI"
        },
        {
            "address": "NA",
            "lat": -5.31329,
            "lng": 37.57582,
            "languages": [],
            "name": "BALANG'A"
        },
        {
            "address": "NA",
            "lat": -4.64209,
            "lng": 35.2756,
            "languages": [],
            "name": "BALANGDALALU"
        },
        {
            "address": "NA",
            "lat": -2.70638,
            "lng": 32.64912,
            "languages": [],
            "name": "BALATOGWA"
        },
        {
            "address": "NA",
            "lat": -7.873031,
            "lng": 39.806575,
            "languages": [],
            "name": "BALENI"
        },
        {
            "address": "NA",
            "lat": -4.97254,
            "lng": 38.7966,
            "languages": [],
            "name": "BAMBA MAVENGERO"
        },
        {
            "address": "NA",
            "lat": -7.63137,
            "lng": 38.07052,
            "languages": [],
            "name": "BAMITA"
        },
        {
            "address": "NA",
            "lat": -5.07008,
            "lng": 39.10501,
            "languages": [],
            "name": "BANDARI"
        },
        {
            "address": "NA",
            "lat": -10.2804,
            "lng": 40.19507,
            "languages": [],
            "name": "BANDARI"
        },
        {
            "address": "NA",
            "lat": -2.62339,
            "lng": 34.0455,
            "languages": [],
            "name": "BANEMHI"
        },
        {
            "address": "NA",
            "lat": -4.23113,
            "lng": 37.8482,
            "languages": [],
            "name": "BANGALALA"
        },
        {
            "address": "NA",
            "lat": -3.35845,
            "lng": 36.74753,
            "languages": [],
            "name": "BANGATA"
        },
        {
            "address": "NA",
            "lat": -3.33578,
            "lng": 36.7448,
            "languages": [],
            "name": "BANGATA LUTHERAN"
        },
        {
            "address": "NA",
            "lat": -4.906827,
            "lng": 29.613642,
            "languages": [],
            "name": "BANGWE"
        },
        {
            "address": "NA",
            "lat": -2.51775,
            "lng": 32.9066,
            "languages": [],
            "name": "BANK OF TANZANIA"
        },
        {
            "address": "NA",
            "lat": -5.838545,
            "lng": 35.451914,
            "languages": [],
            "name": "BANKOLO"
        },
        {
            "address": "NA",
            "lat": -5.53073,
            "lng": 36.20378,
            "languages": [],
            "name": "BANYIBANYI"
        },
        {
            "address": "NA",
            "lat": -4.885428,
            "lng": 29.658572,
            "languages": [],
            "name": "BAPTIST"
        },
        {
            "address": "NA",
            "lat": -8.80282,
            "lng": 32.8031,
            "languages": [],
            "name": "BARA MISSION"
        },
        {
            "address": "NA",
            "lat": -3.38882,
            "lng": 36.73671,
            "languages": [],
            "name": "BARAA RC"
        },
        {
            "address": "NA",
            "lat": -3.343897,
            "lng": 35.676263,
            "languages": [],
            "name": "BARAKA"
        },
        {
            "address": "NA",
            "lat": -4.05875,
            "lng": 33.3592,
            "languages": [],
            "name": "BARAKA CHEYO"
        },
        {
            "address": "NA",
            "lat": -6.78107,
            "lng": 39.12778,
            "languages": [],
            "name": "BARAKA MBEZI"
        },
        {
            "address": "NA",
            "lat": -1.38045,
            "lng": 33.9261,
            "languages": [],
            "name": "BARAKI"
        },
        {
            "address": "NA",
            "lat": -1.38050235,
            "lng": 33.9261930634601,
            "languages": [],
            "name": "BARAKI Dispensary"
        },
        {
            "address": "NA",
            "lat": -1.36842,
            "lng": 33.968,
            "languages": [],
            "name": "BARAKI SISTERS"
        },
        {
            "address": "NA",
            "lat": -1.368547,
            "lng": 33.9681746481702,
            "languages": [],
            "name": "BARAKI SISTERS Health Centre"
        },
        {
            "address": "NA",
            "lat": -1.68392,
            "lng": 34.22873,
            "languages": [],
            "name": "BARANGA"
        },
        {
            "address": "NA",
            "lat": -1.68396745,
            "lng": 34.2286917011453,
            "languages": [],
            "name": "BARANGA Dispensary"
        },
        {
            "address": "NA",
            "lat": -3.76085,
            "lng": 35.55756,
            "languages": [],
            "name": "BARGISH"
        },
        {
            "address": "NA",
            "lat": -2.7757,
            "lng": 33.99557,
            "languages": [],
            "name": "BARIADI"
        },
        {
            "address": "NA",
            "lat": -9.5,
            "lng": 37.9,
            "languages": [],
            "name": "BARIKIWA"
        },
        {
            "address": "NA",
            "lat": -4.38374,
            "lng": 35.40241,
            "languages": [],
            "name": "BARJOMOT"
        },
        {
            "address": "NA",
            "lat": -4.00537,
            "lng": 35.18884,
            "languages": [],
            "name": "BASHAY"
        },
        {
            "address": "NA",
            "lat": -3.34605,
            "lng": 35.633384,
            "languages": [],
            "name": "BASHAY"
        },
        {
            "address": "NA",
            "lat": -4.23058,
            "lng": 35.42924,
            "languages": [],
            "name": "BASHNET"
        },
        {
            "address": "NA",
            "lat": -4.21978,
            "lng": 35.4209,
            "languages": [],
            "name": "BASHNET"
        },
        {
            "address": "NA",
            "lat": -4.29842,
            "lng": 35.1299,
            "languages": [],
            "name": "BASSODESH"
        },
        {
            "address": "NA",
            "lat": -3.4409,
            "lng": 35.67453,
            "languages": [],
            "name": "BASSODOWISH"
        },
        {
            "address": "NA",
            "lat": -4.36285,
            "lng": 35.0711,
            "languages": [],
            "name": "BASSOTU ZIWANI"
        },
        {
            "address": "NA",
            "lat": -6.36399,
            "lng": 38.0411,
            "languages": [],
            "name": "BAUBAB"
        },
        {
            "address": "NA",
            "lat": -4.832222,
            "lng": 35.889613,
            "languages": [],
            "name": "BAURA"
        },
        {
            "address": "NA",
            "lat": -5.0202,
            "lng": 32.80632,
            "languages": [],
            "name": "BEATRICE"
        },
        {
            "address": "NA",
            "lat": -3.91533,
            "lng": 33.878,
            "languages": [],
            "name": "BELEDI"
        },
        {
            "address": "NA",
            "lat": -7.26653,
            "lng": 38.79718,
            "languages": [],
            "name": "BEMBEZA"
        },
        {
            "address": "NA",
            "lat": -6.80424,
            "lng": 39.16104,
            "languages": [],
            "name": "BEN MICO"
        },
        {
            "address": "NA",
            "lat": -4.59303,
            "lng": 38.0581,
            "languages": [],
            "name": "BENDERA"
        },
        {
            "address": "NA",
            "lat": -6.17856,
            "lng": 37.145,
            "languages": [],
            "name": "BEREGA"
        },
        {
            "address": "NA",
            "lat": -6.46832,
            "lng": 36.28938,
            "languages": [],
            "name": "BEREGE"
        },
        {
            "address": "NA",
            "lat": -4.449232,
            "lng": 35.74066,
            "languages": [],
            "name": "BEREKO"
        },
        {
            "address": "NA",
            "lat": -10.7387,
            "lng": 38.80667,
            "languages": [],
            "name": "BEST HEALTH SERVICES"
        },
        {
            "address": "NA",
            "lat": -1.535599,
            "lng": 33.793888,
            "languages": [],
            "name": "BETHSAIDA"
        },
        {
            "address": "NA",
            "lat": -1.53561905,
            "lng": 33.7938833996126,
            "languages": [],
            "name": "BETHSAIDA Health Centre"
        },
        {
            "address": "NA",
            "lat": -6.76615,
            "lng": 38.95438,
            "languages": [],
            "name": "BHOKE"
        },
        {
            "address": "NA",
            "lat": -4.80716,
            "lng": 29.65511,
            "languages": [],
            "name": "BIGABIRO"
        },
        {
            "address": "NA",
            "lat": -2.63381,
            "lng": 31.3447,
            "languages": [],
            "name": "BIHARAMULO DDH"
        },
        {
            "address": "NA",
            "lat": -4.32506,
            "lng": 30.01874,
            "languages": [],
            "name": "BIHARU"
        },
        {
            "address": "NA",
            "lat": -6.272681,
            "lng": 35.639873,
            "languages": [],
            "name": "BIHAWANA"
        },
        {
            "address": "NA",
            "lat": -4.20493,
            "lng": 35.57602,
            "languages": [],
            "name": "BIKIRA MARIA EMAKULATA"
        },
        {
            "address": "NA",
            "lat": -3.3657,
            "lng": 36.6876,
            "languages": [],
            "name": "BIKIRA MARIA MAMA WA HURUMA"
        },
        {
            "address": "NA",
            "lat": -1.35619,
            "lng": 34.34444,
            "languages": [],
            "name": "BIKIRA MARIA MIUJIZA"
        },
        {
            "address": "NA",
            "lat": -1.3562144,
            "lng": 34.3443234559235,
            "languages": [],
            "name": "BIKIRA MARIA MIUJIZA Dispensary"
        },
        {
            "address": "NA",
            "lat": -7.26814,
            "lng": 39.2333,
            "languages": [],
            "name": "BINGA"
        },
        {
            "address": "NA",
            "lat": -6.828636,
            "lng": 39.231977,
            "languages": [],
            "name": "BINGI"
        },
        {
            "address": "NA",
            "lat": -2.51174,
            "lng": 32.9096,
            "languages": [],
            "name": "BIO HEALTH"
        },
        {
            "address": "NA",
            "lat": -2.51848,
            "lng": 32.90155,
            "languages": [],
            "name": "BIO HEALTH"
        },
        {
            "address": "NA",
            "lat": -8.88045,
            "lng": 36.0545,
            "languages": [],
            "name": "BIRO"
        },
        {
            "address": "NA",
            "lat": -1.60304,
            "lng": 33.81003,
            "languages": [],
            "name": "BISUMWA"
        },
        {
            "address": "NA",
            "lat": -1.6031288,
            "lng": 33.8100121499443,
            "languages": [],
            "name": "BISUMWA Dispensary"
        },
        {
            "address": "NA",
            "lat": -4.76667,
            "lng": 29.6833,
            "languages": [],
            "name": "BITALE"
        },
        {
            "address": "NA",
            "lat": -3.5579,
            "lng": 30.70785,
            "languages": [],
            "name": "BITARE"
        },
        {
            "address": "NA",
            "lat": -7.460726,
            "lng": 33.427728,
            "languages": [],
            "name": "BITIMANYANGA DISP"
        },
        {
            "address": "NA",
            "lat": -2.77137,
            "lng": 32.78429,
            "languages": [],
            "name": "BITOTO"
        },
        {
            "address": "NA",
            "lat": -3.62574,
            "lng": 30.72354,
            "languages": [],
            "name": "BITURANA"
        },
        {
            "address": "NA",
            "lat": -6.77046,
            "lng": 39.07188,
            "languages": [],
            "name": "BJ MMASI"
        },
        {
            "address": "NA",
            "lat": -6.994774,
            "lng": 39.084504,
            "languages": [],
            "name": "BLESSING"
        },
        {
            "address": "NA",
            "lat": -6.789444,
            "lng": 39.13008,
            "languages": [],
            "name": "BOCHI"
        },
        {
            "address": "NA",
            "lat": -5.597537,
            "lng": 38.116767,
            "languages": [],
            "name": "BOGOLWA DISPENSARY"
        },
        {
            "address": "NA",
            "lat": -9.64211,
            "lng": 34.718396,
            "languages": [],
            "name": "BOIMANDA"
        },
        {
            "address": "NA",
            "lat": -6.63118,
            "lng": 39.15227,
            "languages": [],
            "name": "BOKO"
        },
        {
            "address": "NA",
            "lat": -6.84198,
            "lng": 38.9146,
            "languages": [],
            "name": "BOKO MNEMELA"
        },
        {
            "address": "NA",
            "lat": -4.816344,
            "lng": 35.813142,
            "languages": [],
            "name": "BOLISA"
        },
        {
            "address": "NA",
            "lat": -2.02401,
            "lng": 33.8627,
            "languages": [],
            "name": "BOMA"
        },
        {
            "address": "NA",
            "lat": -3.33632,
            "lng": 37.14844,
            "languages": [],
            "name": "BOMA CRCA"
        },
        {
            "address": "NA",
            "lat": -3.33958,
            "lng": 37.14841,
            "languages": [],
            "name": "BOMA CRCB"
        },
        {
            "address": "NA",
            "lat": -2.0240961,
            "lng": 33.862629568342,
            "languages": [],
            "name": "BOMA Dispensary"
        },
        {
            "address": "NA",
            "lat": -3.333,
            "lng": 37.15134,
            "languages": [],
            "name": "BOMA HEALTH CARE"
        },
        {
            "address": "NA",
            "lat": -3.32833,
            "lng": 37.1623,
            "languages": [],
            "name": "BOMA NG'OMBE"
        },
        {
            "address": "NA",
            "lat": -7.22937,
            "lng": 35.88238,
            "languages": [],
            "name": "BOMA NG'OMBE"
        },
        {
            "address": "NA",
            "lat": -4.27944,
            "lng": 34.4108,
            "languages": [],
            "name": "BOMANI"
        },
        {
            "address": "NA",
            "lat": -5.06535,
            "lng": 39.11155,
            "languages": [],
            "name": "BOMBO REGIONAL"
        },
        {
            "address": "NA",
            "lat": -1.874362,
            "lng": 34.783327,
            "languages": [],
            "name": "BONCHUGU"
        },
        {
            "address": "NA",
            "lat": -1.87424095,
            "lng": 34.7831538,
            "languages": [],
            "name": "BONCHUGU Dispensary"
        },
        {
            "address": "NA",
            "lat": -1.8742346,
            "lng": 34.7831609976591,
            "languages": [],
            "name": "BONCHUGU Dispensary"
        },
        {
            "address": "NA",
            "lat": -6.76963,
            "lng": 39.26635,
            "languages": [],
            "name": "BONDE LA MPUNGA"
        },
        {
            "address": "NA",
            "lat": -3.36007,
            "lng": 37.33994,
            "languages": [],
            "name": "BONDENI"
        },
        {
            "address": "NA",
            "lat": -5.30427,
            "lng": 38.57925,
            "languages": [],
            "name": "BONDO"
        },
        {
            "address": "NA",
            "lat": -4.20957,
            "lng": 35.443,
            "languages": [],
            "name": "BONGA"
        },
        {
            "address": "NA",
            "lat": -6.834409,
            "lng": 39.159593,
            "languages": [],
            "name": "BONYOKWA"
        },
        {
            "address": "NA",
            "lat": -5.42486,
            "lng": 38.9736,
            "languages": [],
            "name": "BOZA"
        },
        {
            "address": "NA",
            "lat": -9.99601,
            "lng": 39.7138,
            "languages": [],
            "name": "BRIGITA"
        },
        {
            "address": "NA",
            "lat": -1.15617,
            "lng": 31.2339,
            "languages": [],
            "name": "BUBALE"
        },
        {
            "address": "NA",
            "lat": -4.71996,
            "lng": 29.66945,
            "languages": [],
            "name": "BUBANGO"
        },
        {
            "address": "NA",
            "lat": -3.39514,
            "lng": 33.43208,
            "languages": [],
            "name": "BUBIKI"
        },
        {
            "address": "NA",
            "lat": -3.79,
            "lng": 33.90234,
            "languages": [],
            "name": "BUBINZA"
        },
        {
            "address": "NA",
            "lat": -2.54388,
            "lng": 33.49942,
            "languages": [],
            "name": "BUBINZA"
        },
        {
            "address": "NA",
            "lat": -1.0823,
            "lng": 34.0756,
            "languages": [],
            "name": "BUBOMBI"
        },
        {
            "address": "NA",
            "lat": -1.08221585,
            "lng": 34.0756150197987,
            "languages": [],
            "name": "BUBOMBI Dispensary"
        },
        {
            "address": "NA",
            "lat": -1.32269,
            "lng": 31.56656,
            "languages": [],
            "name": "BUCHURAGO"
        },
        {
            "address": "NA",
            "lat": -3.43811,
            "lng": 33.81575,
            "languages": [],
            "name": "BUDEKWA"
        },
        {
            "address": "NA",
            "lat": -4.79388,
            "lng": 33.33,
            "languages": [],
            "name": "BUDUSHI"
        },
        {
            "address": "NA",
            "lat": -4.664482,
            "lng": 30.065691,
            "languages": [],
            "name": "BUGAGA"
        },
        {
            "address": "NA",
            "lat": -4.598631,
            "lng": 29.651119,
            "languages": [],
            "name": "BUGAMBA"
        },
        {
            "address": "NA",
            "lat": -2.73419,
            "lng": 33.55029,
            "languages": [],
            "name": "BUGANDANDO"
        },
        {
            "address": "NA",
            "lat": -1.25709,
            "lng": 31.65784,
            "languages": [],
            "name": "BUGANDIKA"
        },
        {
            "address": "NA",
            "lat": -3.59509,
            "lng": 31.95286,
            "languages": [],
            "name": "BUGANDO"
        },
        {
            "address": "NA",
            "lat": -2.52937,
            "lng": 32.90706,
            "languages": [],
            "name": "BUGANDO MEDICAL CENTRE"
        },
        {
            "address": "NA",
            "lat": -1.6881,
            "lng": 31.57471,
            "languages": [],
            "name": "BUGANGUZI"
        },
        {
            "address": "NA",
            "lat": -3.45763,
            "lng": 33.5452,
            "languages": [],
            "name": "BUGANIKA"
        },
        {
            "address": "NA",
            "lat": -3.62251,
            "lng": 32.42562,
            "languages": [],
            "name": "BUGANZO"
        },
        {
            "address": "NA",
            "lat": -3.27083,
            "lng": 32.42476,
            "languages": [],
            "name": "BUGARAMA"
        },
        {
            "address": "NA",
            "lat": -2.86689,
            "lng": 30.53115,
            "languages": [],
            "name": "BUGARAMA"
        },
        {
            "address": "NA",
            "lat": -3.29805,
            "lng": 33.72516,
            "languages": [],
            "name": "BUGARAMA"
        },
        {
            "address": "NA",
            "lat": -2.53533,
            "lng": 32.91783,
            "languages": [],
            "name": "BUGARIKA"
        },
        {
            "address": "NA",
            "lat": -3.64663,
            "lng": 32.0124,
            "languages": [],
            "name": "BUGELENGA"
        },
        {
            "address": "NA",
            "lat": -3.10303,
            "lng": 33.39585,
            "languages": [],
            "name": "BUGEMBE"
        },
        {
            "address": "NA",
            "lat": -3.725942,
            "lng": 35.638136,
            "languages": [],
            "name": "BUGER"
        },
        {
            "address": "NA",
            "lat": -1.19868,
            "lng": 34.2605,
            "languages": [],
            "name": "BUGIRE"
        },
        {
            "address": "NA",
            "lat": -1.198746,
            "lng": 34.2604596854967,
            "languages": [],
            "name": "BUGIRE Dispensary"
        },
        {
            "address": "NA",
            "lat": -2.85514,
            "lng": 32.88467,
            "languages": [],
            "name": "BUGISHA"
        },
        {
            "address": "NA",
            "lat": -3.82599,
            "lng": 33.0731,
            "languages": [],
            "name": "BUGISI"
        },
        {
            "address": "NA",
            "lat": -3.77168,
            "lng": 33.30901,
            "languages": [],
            "name": "BUGOGO"
        },
        {
            "address": "NA",
            "lat": -1.89834,
            "lng": 33.7386,
            "languages": [],
            "name": "BUGOJI"
        },
        {
            "address": "NA",
            "lat": -1.8983711,
            "lng": 33.7386671920194,
            "languages": [],
            "name": "BUGOJI Dispensary"
        },
        {
            "address": "NA",
            "lat": -1.20814,
            "lng": 31.50521,
            "languages": [],
            "name": "BUGOROLA"
        },
        {
            "address": "NA",
            "lat": -1.98515,
            "lng": 33.01855,
            "languages": [],
            "name": "BUGOROLA"
        },
        {
            "address": "NA",
            "lat": -2.01431,
            "lng": 32.88144,
            "languages": [],
            "name": "BUGULA"
        },
        {
            "address": "NA",
            "lat": -1.82463,
            "lng": 33.3571,
            "languages": [],
            "name": "BUGUNDA"
        },
        {
            "address": "NA",
            "lat": -6.83742,
            "lng": 39.2445,
            "languages": [],
            "name": "BUGURUNI"
        },
        {
            "address": "NA",
            "lat": -6.829648,
            "lng": 39.250185,
            "languages": [],
            "name": "BUGURUNI ANGLICAN"
        },
        {
            "address": "NA",
            "lat": -1.562588,
            "lng": 31.246498,
            "languages": [],
            "name": "BUHAMIRA"
        },
        {
            "address": "NA",
            "lat": -4.866298,
            "lng": 29.666783,
            "languages": [],
            "name": "BUHANDA"
        },
        {
            "address": "NA",
            "lat": -3.68658,
            "lng": 33.41269,
            "languages": [],
            "name": "BUHANGIJA"
        },
        {
            "address": "NA",
            "lat": -1.516481,
            "lng": 33.785273,
            "languages": [],
            "name": "BUHARE"
        },
        {
            "address": "NA",
            "lat": -1.51642135,
            "lng": 33.7853617814714,
            "languages": [],
            "name": "BUHARE Dispensary"
        },
        {
            "address": "NA",
            "lat": -1.76362,
            "lng": 34.0789,
            "languages": [],
            "name": "BUHEMBA"
        },
        {
            "address": "NA",
            "lat": -1.76357505,
            "lng": 34.0789845188836,
            "languages": [],
            "name": "BUHEMBA Dispensary"
        },
        {
            "address": "NA",
            "lat": -1.2867,
            "lng": 31.80765,
            "languages": [],
            "name": "BUHEMBE"
        },
        {
            "address": "NA",
            "lat": -4.45099,
            "lng": 29.92598,
            "languages": [],
            "name": "BUHIGWE"
        },
        {
            "address": "NA",
            "lat": -2.4114,
            "lng": 32.18441,
            "languages": [],
            "name": "BUHINDI"
        },
        {
            "address": "NA",
            "lat": -3.06333,
            "lng": 33.02207,
            "languages": [],
            "name": "BUHINGO"
        },
        {
            "address": "NA",
            "lat": -2.62592,
            "lng": 32.9464,
            "languages": [],
            "name": "BUHONGWA"
        },
        {
            "address": "NA",
            "lat": -4.399143,
            "lng": 30.183162,
            "languages": [],
            "name": "BUHORO"
        },
        {
            "address": "NA",
            "lat": -2.53633,
            "lng": 30.61705,
            "languages": [],
            "name": "BUHORORO"
        },
        {
            "address": "NA",
            "lat": -2.67179,
            "lng": 33.47696,
            "languages": [],
            "name": "BUHUMBI"
        },
        {
            "address": "NA",
            "lat": -3.03411,
            "lng": 32.88011,
            "languages": [],
            "name": "BUHUNDA"
        },
        {
            "address": "NA",
            "lat": -6.14021,
            "lng": 35.2266,
            "languages": [],
            "name": "BUIGIRI"
        },
        {
            "address": "NA",
            "lat": -2.48544,
            "lng": 33.0519,
            "languages": [],
            "name": "BUJASHI"
        },
        {
            "address": "NA",
            "lat": -9.340129,
            "lng": 33.691675,
            "languages": [],
            "name": "BUJELA"
        },
        {
            "address": "NA",
            "lat": -9.612407,
            "lng": 33.917183,
            "languages": [],
            "name": "BUJONDE"
        },
        {
            "address": "NA",
            "lat": -1.592144,
            "lng": 31.17456,
            "languages": [],
            "name": "BUJURUGA"
        },
        {
            "address": "NA",
            "lat": -3.65546,
            "lng": 32.2876,
            "languages": [],
            "name": "BUKADWE"
        },
        {
            "address": "NA",
            "lat": -4.17899,
            "lng": 33.83,
            "languages": [],
            "name": "BUKAMA"
        },
        {
            "address": "NA",
            "lat": -1.719344,
            "lng": 31.024048,
            "languages": [],
            "name": "BUKANGARA"
        },
        {
            "address": "NA",
            "lat": -4.67141,
            "lng": 32.1037,
            "languages": [],
            "name": "BUKEMBA"
        },
        {
            "address": "NA",
            "lat": -3.70577,
            "lng": 32.17526,
            "languages": [],
            "name": "BUKENE"
        },
        {
            "address": "NA",
            "lat": -4.22514,
            "lng": 32.8868,
            "languages": [],
            "name": "BUKENE"
        },
        {
            "address": "NA",
            "lat": -1.836,
            "lng": 33.0941,
            "languages": [],
            "name": "BUKIKO"
        },
        {
            "address": "NA",
            "lat": -3.36958,
            "lng": 30.74748,
            "languages": [],
            "name": "BUKILIRO"
        },
        {
            "address": "NA",
            "lat": -1.81012,
            "lng": 33.4079,
            "languages": [],
            "name": "BUKIMA"
        },
        {
            "address": "NA",
            "lat": -1.8101099,
            "lng": 33.4079128064251,
            "languages": [],
            "name": "BUKIMA Dispensary"
        },
        {
            "address": "NA",
            "lat": -2.78007,
            "lng": 30.54794,
            "languages": [],
            "name": "BUKIRIRO"
        },
        {
            "address": "NA",
            "lat": -4.1747,
            "lng": 33.4616,
            "languages": [],
            "name": "BUKOKO"
        },
        {
            "address": "NA",
            "lat": -2.49414,
            "lng": 32.4395,
            "languages": [],
            "name": "BUKOKWA"
        },
        {
            "address": "NA",
            "lat": -3.19623,
            "lng": 32.32703,
            "languages": [],
            "name": "BUKOLI"
        },
        {
            "address": "NA",
            "lat": -3.51464,
            "lng": 32.0482,
            "languages": [],
            "name": "BUKOMBE"
        },
        {
            "address": "NA",
            "lat": -3.51478,
            "lng": 32.0481,
            "languages": [],
            "name": "BUKOMBE"
        },
        {
            "address": "NA",
            "lat": -4.09783,
            "lng": 32.3335,
            "languages": [],
            "name": "BUKOMELA"
        },
        {
            "address": "NA",
            "lat": -2.68208,
            "lng": 31.92444,
            "languages": [],
            "name": "BUKONDO"
        },
        {
            "address": "NA",
            "lat": -2.07837,
            "lng": 32.90004,
            "languages": [],
            "name": "BUKONDO"
        },
        {
            "address": "NA",
            "lat": -1.96565,
            "lng": 32.9306,
            "languages": [],
            "name": "BUKONYO"
        },
        {
            "address": "NA",
            "lat": -4.610666,
            "lng": 35.76392,
            "languages": [],
            "name": "BUKULU"
        },
        {
            "address": "NA",
            "lat": -4.41897,
            "lng": 32.57709,
            "languages": [],
            "name": "BUKUMBI"
        },
        {
            "address": "NA",
            "lat": -2.70619,
            "lng": 32.91026,
            "languages": [],
            "name": "BUKUMBI CAMP"
        },
        {
            "address": "NA",
            "lat": -2.71405,
            "lng": 32.92137,
            "languages": [],
            "name": "BUKUMBI MISSION"
        },
        {
            "address": "NA",
            "lat": -3.90207,
            "lng": 34.52032,
            "languages": [],
            "name": "BUKUNDI"
        },
        {
            "address": "NA",
            "lat": -1.00783,
            "lng": 31.75429,
            "languages": [],
            "name": "BUKWALI"
        },
        {
            "address": "NA",
            "lat": -1.33169,
            "lng": 34.2476,
            "languages": [],
            "name": "BUKWE ADRA"
        },
        {
            "address": "NA",
            "lat": -1.33149485,
            "lng": 34.2477909573577,
            "languages": [],
            "name": "BUKWE ADRA Health Centre"
        },
        {
            "address": "NA",
            "lat": -3.33765,
            "lng": 32.61017,
            "languages": [],
            "name": "BUKWIMBA"
        },
        {
            "address": "NA",
            "lat": -5.72824,
            "lng": 30.56213,
            "languages": [],
            "name": "BULAMATA"
        },
        {
            "address": "NA",
            "lat": -2.05496,
            "lng": 33.08659,
            "languages": [],
            "name": "BULAMBA"
        },
        {
            "address": "NA",
            "lat": -2.13702,
            "lng": 33.6273,
            "languages": [],
            "name": "BULAMBA"
        },
        {
            "address": "NA",
            "lat": -2.13705985,
            "lng": 33.6274137136591,
            "languages": [],
            "name": "BULAMBA Dispensary"
        },
        {
            "address": "NA",
            "lat": -9.589163,
            "lng": 33.470914,
            "languages": [],
            "name": "BULANGA"
        },
        {
            "address": "NA",
            "lat": -4.11857,
            "lng": 33.374,
            "languages": [],
            "name": "BULANGAMILWA"
        },
        {
            "address": "NA",
            "lat": -3.95804,
            "lng": 34.01377,
            "languages": [],
            "name": "BULEKELA"
        },
        {
            "address": "NA",
            "lat": -1.29541,
            "lng": 31.52111,
            "languages": [],
            "name": "BULEMBO"
        },
        {
            "address": "NA",
            "lat": -3.52692,
            "lng": 32.66974,
            "languages": [],
            "name": "BULIGE"
        },
        {
            "address": "NA",
            "lat": -1.28699,
            "lng": 31.44692,
            "languages": [],
            "name": "BULILA"
        },
        {
            "address": "NA",
            "lat": -3.39632,
            "lng": 33.62826,
            "languages": [],
            "name": "BULIMA"
        },
        {
            "address": "NA",
            "lat": -2.37489,
            "lng": 33.5629,
            "languages": [],
            "name": "BULIMA"
        },
        {
            "address": "NA",
            "lat": -9.326767,
            "lng": 34.040391,
            "languages": [],
            "name": "BULONGWA"
        },
        {
            "address": "NA",
            "lat": -4.16778,
            "lng": 33.4068,
            "languages": [],
            "name": "BULUMBELA"
        },
        {
            "address": "NA",
            "lat": -4.00407,
            "lng": 32.23053,
            "languages": [],
            "name": "BULUNGWA"
        },
        {
            "address": "NA",
            "lat": -5.04091,
            "lng": 38.642,
            "languages": [],
            "name": "BULWA"
        },
        {
            "address": "NA",
            "lat": -3.419506,
            "lng": 34.59982,
            "languages": [],
            "name": "BULYASHI"
        },
        {
            "address": "NA",
            "lat": -1.72267,
            "lng": 34.00953,
            "languages": [],
            "name": "BUMANGI GOVT"
        },
        {
            "address": "NA",
            "lat": -1.722536,
            "lng": 34.0094864407325,
            "languages": [],
            "name": "BUMANGI GOVT Dispensary"
        },
        {
            "address": "NA",
            "lat": -4.86325,
            "lng": 38.47033,
            "languages": [],
            "name": "BUMBULI MISSION"
        },
        {
            "address": "NA",
            "lat": -4.646114,
            "lng": 35.950984,
            "languages": [],
            "name": "BUMBUTA"
        },
        {
            "address": "NA",
            "lat": -1.29125,
            "lng": 34.2965,
            "languages": [],
            "name": "BUMERA"
        },
        {
            "address": "NA",
            "lat": -2.78706,
            "lng": 34.13741,
            "languages": [],
            "name": "BUMERA"
        },
        {
            "address": "NA",
            "lat": -1.2912825,
            "lng": 34.2965191433573,
            "languages": [],
            "name": "BUMERA Dispensary"
        },
        {
            "address": "NA",
            "lat": -8.37872,
            "lng": 35.05679,
            "languages": [],
            "name": "BUMILAYINGA"
        },
        {
            "address": "NA",
            "lat": -3.41614,
            "lng": 33.30863,
            "languages": [],
            "name": "BUNAMBIYU"
        },
        {
            "address": "NA",
            "lat": -2.85696,
            "lng": 34.01386,
            "languages": [],
            "name": "BUNAMHALA CHUONI"
        },
        {
            "address": "NA",
            "lat": -2.96608,
            "lng": 33.87629,
            "languages": [],
            "name": "BUNAMHALAMBUGANI"
        },
        {
            "address": "NA",
            "lat": -1.20995,
            "lng": 31.40942,
            "languages": [],
            "name": "BUNAZI"
        },
        {
            "address": "NA",
            "lat": -2.01727,
            "lng": 33.8704,
            "languages": [],
            "name": "BUNDA"
        },
        {
            "address": "NA",
            "lat": -2.02994,
            "lng": 33.8755,
            "languages": [],
            "name": "BUNDA DDH"
        },
        {
            "address": "NA",
            "lat": -2.03015565,
            "lng": 33.8759170493118,
            "languages": [],
            "name": "BUNDA DDH Hospital"
        },
        {
            "address": "NA",
            "lat": -2.01727435,
            "lng": 33.870480857791,
            "languages": [],
            "name": "BUNDA Health Centre"
        },
        {
            "address": "NA",
            "lat": -7.1842,
            "lng": 37.3705,
            "languages": [],
            "name": "BUNDUKI"
        },
        {
            "address": "NA",
            "lat": -2.95831,
            "lng": 32.34183,
            "languages": [],
            "name": "BUNEGEZI"
        },
        {
            "address": "NA",
            "lat": -5.029725,
            "lng": 38.389206,
            "languages": [],
            "name": "BUNGU"
        },
        {
            "address": "NA",
            "lat": -1.40164,
            "lng": 34.6617,
            "languages": [],
            "name": "BUNGURERE"
        },
        {
            "address": "NA",
            "lat": -1.40156925,
            "lng": 34.6615905881012,
            "languages": [],
            "name": "BUNGURERE Dispensary"
        },
        {
            "address": "NA",
            "lat": -6.62027,
            "lng": 39.11057,
            "languages": [],
            "name": "BUNJU"
        },
        {
            "address": "NA",
            "lat": -3.57199,
            "lng": 30.63549,
            "languages": [],
            "name": "BUNYAMBO"
        },
        {
            "address": "NA",
            "lat": -2.64496,
            "lng": 34.01009,
            "languages": [],
            "name": "BUPANDAGILA - SDA"
        },
        {
            "address": "NA",
            "lat": -2.44682,
            "lng": 32.1526,
            "languages": [],
            "name": "BUPANDWAMHELA"
        },
        {
            "address": "NA",
            "lat": -3.55117,
            "lng": 33.69935,
            "languages": [],
            "name": "BUPIGI"
        },
        {
            "address": "NA",
            "lat": -9.50139,
            "lng": 33.3476,
            "languages": [],
            "name": "BUPIGU"
        },
        {
            "address": "NA",
            "lat": -7.19919,
            "lng": 39.0225,
            "languages": [],
            "name": "BUPU"
        },
        {
            "address": "NA",
            "lat": -6.76108,
            "lng": 38.92455,
            "languages": [],
            "name": "BURERE"
        },
        {
            "address": "NA",
            "lat": -1.30831,
            "lng": 33.964,
            "languages": [],
            "name": "BURERE"
        },
        {
            "address": "NA",
            "lat": -5.0761,
            "lng": 39.1007,
            "languages": [],
            "name": "BURHAN STR. 4"
        },
        {
            "address": "NA",
            "lat": -2.12365,
            "lng": 31.4234,
            "languages": [],
            "name": "BURIGI"
        },
        {
            "address": "NA",
            "lat": -1.845858,
            "lng": 34.676955,
            "languages": [],
            "name": "BURITO"
        },
        {
            "address": "NA",
            "lat": -11.16848,
            "lng": 34.91393,
            "languages": [],
            "name": "BURMA"
        },
        {
            "address": "NA",
            "lat": -10.282408,
            "lng": 40.190314,
            "languages": [],
            "name": "BURSA"
        },
        {
            "address": "NA",
            "lat": -1.67623,
            "lng": 33.83745,
            "languages": [],
            "name": "BURUMA"
        },
        {
            "address": "NA",
            "lat": -1.6760544,
            "lng": 33.8373718625208,
            "languages": [],
            "name": "BURUMA Dispensary"
        },
        {
            "address": "NA",
            "lat": -2.96956,
            "lng": 31.73053,
            "languages": [],
            "name": "BUSAKA"
        },
        {
            "address": "NA",
            "lat": -2.64889,
            "lng": 33.54692,
            "languages": [],
            "name": "BUSALANGA"
        },
        {
            "address": "NA",
            "lat": -9.519107,
            "lng": 33.746564,
            "languages": [],
            "name": "BUSALE"
        },
        {
            "address": "NA",
            "lat": -2.14896,
            "lng": 33.431,
            "languages": [],
            "name": "BUSAMBARA"
        },
        {
            "address": "NA",
            "lat": -3.01912,
            "lng": 32.12221,
            "languages": [],
            "name": "BUSANDA"
        },
        {
            "address": "NA",
            "lat": -3.65804,
            "lng": 32.55714,
            "languages": [],
            "name": "BUSANGI"
        },
        {
            "address": "NA",
            "lat": -1.95897,
            "lng": 32.88338,
            "languages": [],
            "name": "BUSANGU MWIGU"
        },
        {
            "address": "NA",
            "lat": -3.44515,
            "lng": 33.40723,
            "languages": [],
            "name": "BUSANGWA"
        },
        {
            "address": "NA",
            "lat": -1.72088,
            "lng": 33.95883,
            "languages": [],
            "name": "BUSEGWE"
        },
        {
            "address": "NA",
            "lat": -1.72076505,
            "lng": 33.9588985667389,
            "languages": [],
            "name": "BUSEGWE Dispensary"
        },
        {
            "address": "NA",
            "lat": -1.70859,
            "lng": 33.9532,
            "languages": [],
            "name": "BUSEGWE SDA"
        },
        {
            "address": "NA",
            "lat": -1.70856405,
            "lng": 33.9532085690862,
            "languages": [],
            "name": "BUSEGWE SDA Dispensary"
        },
        {
            "address": "NA",
            "lat": -2.5879,
            "lng": 32.30947,
            "languages": [],
            "name": "BUSEKESEKE"
        },
        {
            "address": "NA",
            "lat": -2.52324,
            "lng": 33.03202,
            "languages": [],
            "name": "BUSEKWA"
        },
        {
            "address": "NA",
            "lat": -4.07186,
            "lng": 32.59838,
            "languages": [],
            "name": "BUSENDA"
        },
        {
            "address": "NA",
            "lat": -1.07657,
            "lng": 31.805,
            "languages": [],
            "name": "BUSHASHA"
        },
        {
            "address": "NA",
            "lat": -3.1236,
            "lng": 34.0087,
            "languages": [],
            "name": "BUSHASHI"
        },
        {
            "address": "NA",
            "lat": -1.54032,
            "lng": 31.703,
            "languages": [],
            "name": "BUSHEKYA"
        },
        {
            "address": "NA",
            "lat": -5.35868,
            "lng": 38.9514,
            "languages": [],
            "name": "BUSHIRI"
        },
        {
            "address": "NA",
            "lat": -4.85029,
            "lng": 36.051044,
            "languages": [],
            "name": "BUSI"
        },
        {
            "address": "NA",
            "lat": -4.881066,
            "lng": 29.678249,
            "languages": [],
            "name": "BUSINDE"
        },
        {
            "address": "NA",
            "lat": -1.13651,
            "lng": 30.94367,
            "languages": [],
            "name": "BUSINDE"
        },
        {
            "address": "NA",
            "lat": -2.72888,
            "lng": 32.85098,
            "languages": [],
            "name": "BUSISI"
        },
        {
            "address": "NA",
            "lat": -2.72737,
            "lng": 32.86786,
            "languages": [],
            "name": "BUSISI"
        },
        {
            "address": "NA",
            "lat": -2.99855,
            "lng": 32.6282,
            "languages": [],
            "name": "BUSOLWA"
        },
        {
            "address": "NA",
            "lat": -4.68082,
            "lng": 33.17812,
            "languages": [],
            "name": "BUSONDO"
        },
        {
            "address": "NA",
            "lat": -3.12152,
            "lng": 32.94986,
            "languages": [],
            "name": "BUSONGO"
        },
        {
            "address": "NA",
            "lat": -5.80329,
            "lng": 30.59647,
            "languages": [],
            "name": "BUSONGOLA"
        },
        {
            "address": "NA",
            "lat": -2.71039,
            "lng": 32.72397,
            "languages": [],
            "name": "BUSULWANGILI"
        },
        {
            "address": "NA",
            "lat": -2.10604,
            "lng": 32.8843,
            "languages": [],
            "name": "BUSUMBA"
        },
        {
            "address": "NA",
            "lat": -1.83539,
            "lng": 33.3926,
            "languages": [],
            "name": "BUSUNGU"
        },
        {
            "address": "NA",
            "lat": -1.8354174,
            "lng": 33.3927002501554,
            "languages": [],
            "name": "BUSUNGU Dispensary"
        },
        {
            "address": "NA",
            "lat": -3.95355,
            "lng": 30.6049,
            "languages": [],
            "name": "BUSUNZU"
        },
        {
            "address": "NA",
            "lat": -2.47813,
            "lng": 31.74878,
            "languages": [],
            "name": "BUTARAMA"
        },
        {
            "address": "NA",
            "lat": -3.02183,
            "lng": 31.89297,
            "languages": [],
            "name": "BUTENGORUMASA"
        },
        {
            "address": "NA",
            "lat": -1.7674,
            "lng": 33.96015,
            "languages": [],
            "name": "BUTIAMA"
        },
        {
            "address": "NA",
            "lat": -1.7673038,
            "lng": 33.9599515711975,
            "languages": [],
            "name": "BUTIAMA Hospital"
        },
        {
            "address": "NA",
            "lat": -2.56,
            "lng": 32.91,
            "languages": [],
            "name": "BUTIMBA PRISON"
        },
        {
            "address": "NA",
            "lat": -2.56391,
            "lng": 32.89392,
            "languages": [],
            "name": "BUTIMBA T.T.C"
        },
        {
            "address": "NA",
            "lat": -3.6463,
            "lng": 37.71612,
            "languages": [],
            "name": "BUTU"
        },
        {
            "address": "NA",
            "lat": -1.67403,
            "lng": 33.9528,
            "languages": [],
            "name": "BUTUGURI"
        },
        {
            "address": "NA",
            "lat": -1.67410585,
            "lng": 33.9527163747502,
            "languages": [],
            "name": "BUTUGURI Dispensary"
        },
        {
            "address": "NA",
            "lat": -1.41729,
            "lng": 34.0104,
            "languages": [],
            "name": "BUTURI"
        },
        {
            "address": "NA",
            "lat": -1.4173493,
            "lng": 34.0105187,
            "languages": [],
            "name": "BUTURI Dispensary"
        },
        {
            "address": "NA",
            "lat": -2.98613,
            "lng": 32.21575,
            "languages": [],
            "name": "BUYAGU"
        },
        {
            "address": "NA",
            "lat": -2.84144,
            "lng": 32.80172,
            "languages": [],
            "name": "BUYAGU"
        },
        {
            "address": "NA",
            "lat": -1.14465,
            "lng": 31.64271,
            "languages": [],
            "name": "BUYANGO"
        },
        {
            "address": "NA",
            "lat": -1.33783,
            "lng": 31.81147,
            "languages": [],
            "name": "BUYEKELA POLICELINE"
        },
        {
            "address": "NA",
            "lat": -3.10613,
            "lng": 33.14831,
            "languages": [],
            "name": "BUYOGO"
        },
        {
            "address": "NA",
            "lat": -6.95661,
            "lng": 39.1011,
            "languages": [],
            "name": "BUYUNI"
        },
        {
            "address": "NA",
            "lat": -6.89178,
            "lng": 39.2313,
            "languages": [],
            "name": "BUZA"
        },
        {
            "address": "NA",
            "lat": -2.9805,
            "lng": 31.66348,
            "languages": [],
            "name": "BUZIKU"
        },
        {
            "address": "NA",
            "lat": -2.68936,
            "lng": 32.47444,
            "languages": [],
            "name": "BUZILASOGA"
        },
        {
            "address": "NA",
            "lat": -2.78106,
            "lng": 31.7802,
            "languages": [],
            "name": "BUZIRAYOMBO"
        },
        {
            "address": "NA",
            "lat": -2.53237,
            "lng": 32.94074,
            "languages": [],
            "name": "BUZURUGA"
        },
        {
            "address": "NA",
            "lat": -5.3166,
            "lng": 36.59455,
            "languages": [],
            "name": "BWAGAMOYO"
        },
        {
            "address": "NA",
            "lat": -1.69598,
            "lng": 33.593,
            "languages": [],
            "name": "BWAI"
        },
        {
            "address": "NA",
            "lat": -1.6959245,
            "lng": 33.5930319917149,
            "languages": [],
            "name": "BWAI Dispensary"
        },
        {
            "address": "NA",
            "lat": -7.40222,
            "lng": 37.8342,
            "languages": [],
            "name": "BWAKIRA CHINI"
        },
        {
            "address": "NA",
            "lat": -7.3,
            "lng": 37.7,
            "languages": [],
            "name": "BWAKWIRA JUU"
        },
        {
            "address": "NA",
            "lat": -4.39402,
            "lng": 37.94,
            "languages": [],
            "name": "BWAMBO"
        },
        {
            "address": "NA",
            "lat": -3.0347,
            "lng": 31.76082,
            "languages": [],
            "name": "BWANGA"
        },
        {
            "address": "NA",
            "lat": -1.8619,
            "lng": 33.3742,
            "languages": [],
            "name": "BWASI SDA"
        },
        {
            "address": "NA",
            "lat": -3.60778,
            "lng": 36.84283,
            "languages": [],
            "name": "BWAWANI"
        },
        {
            "address": "NA",
            "lat": -3.37531,
            "lng": 32.16981,
            "languages": [],
            "name": "BWELWA"
        },
        {
            "address": "NA",
            "lat": -5.19779,
            "lng": 38.71741,
            "languages": [],
            "name": "BWEMBWERA"
        },
        {
            "address": "NA",
            "lat": -1.76446,
            "lng": 30.87526,
            "languages": [],
            "name": "BWERANYANGE"
        },
        {
            "address": "NA",
            "lat": -4.650334,
            "lng": 38.052355,
            "languages": [],
            "name": "BWIKO"
        },
        {
            "address": "NA",
            "lat": -9.498087,
            "lng": 33.577101,
            "languages": [],
            "name": "BWIPA"
        },
        {
            "address": "NA",
            "lat": -2.47083,
            "lng": 32.8889,
            "languages": [],
            "name": "BWIRU BOYS"
        },
        {
            "address": "NA",
            "lat": -2.47111,
            "lng": 32.8812,
            "languages": [],
            "name": "BWIRU GIRLS"
        },
        {
            "address": "NA",
            "lat": -1.87143,
            "lng": 33.02398,
            "languages": [],
            "name": "BWISYA"
        },
        {
            "address": "NA",
            "lat": -1.896762,
            "lng": 34.661187,
            "languages": [],
            "name": "BWITENGI"
        },
        {
            "address": "NA",
            "lat": -1.8967493,
            "lng": 34.6613929918136,
            "languages": [],
            "name": "BWITENGI Dispensary"
        },
        {
            "address": "NA",
            "lat": -1.39027,
            "lng": 31.7639,
            "languages": [],
            "name": "BWIZANDURU"
        },
        {
            "address": "NA",
            "lat": -1.06365,
            "lng": 31.368447,
            "languages": [],
            "name": "BYEJU"
        },
        {
            "address": "NA",
            "lat": -2.57252,
            "lng": 34.15545,
            "languages": [],
            "name": "BYUNA"
        },
        {
            "address": "NA",
            "lat": -3.6055002,
            "lng": 33.9964786921083,
            "languages": [],
            "name": "Badi Dispensary"
        },
        {
            "address": "NA",
            "lat": -6.43691725,
            "lng": 38.9072162645004,
            "languages": [],
            "name": "Bagamoyo District Hospital"
        },
        {
            "address": "NA",
            "lat": -5.3303293,
            "lng": 39.0322977,
            "languages": [],
            "name": "Bago"
        },
        {
            "address": "NA",
            "lat": -2.5137473,
            "lng": 32.8996472,
            "languages": [],
            "name": "Bahama Hospital, Bahama Hospital"
        },
        {
            "address": "NA",
            "lat": -2.5139495,
            "lng": 32.899859,
            "languages": [],
            "name": "Bahamas dispensary, Bahamas dispensary"
        },
        {
            "address": "NA",
            "lat": -3.4671118,
            "lng": 31.894887,
            "languages": [],
            "name": "Bakwata Huruma"
        },
        {
            "address": "NA",
            "lat": -5.3134382,
            "lng": 37.5757824,
            "languages": [],
            "name": "Balang'A"
        },
        {
            "address": "NA",
            "lat": -4.64207595,
            "lng": 35.2755705593939,
            "languages": [],
            "name": "Balangdalalu"
        },
        {
            "address": "NA",
            "lat": -5.070652,
            "lng": 39.1049868,
            "languages": [],
            "name": "Bandari"
        },
        {
            "address": "NA",
            "lat": -8.8027914,
            "lng": 32.8031045,
            "languages": [],
            "name": "Bara Mission"
        },
        {
            "address": "NA",
            "lat": -6.75640805,
            "lng": 39.2485218672188,
            "languages": [],
            "name": "Baraka Plaza"
        },
        {
            "address": "NA",
            "lat": -6.7565509,
            "lng": 39.2486752,
            "languages": [],
            "name": "Baraka Plaza Hospital"
        },
        {
            "address": "NA",
            "lat": -4.38359625,
            "lng": 35.4023054028333,
            "languages": [],
            "name": "Barjomot"
        },
        {
            "address": "NA",
            "lat": -4.2200695,
            "lng": 35.4207033938458,
            "languages": [],
            "name": "Bashnet"
        },
        {
            "address": "NA",
            "lat": -4.2985136,
            "lng": 35.129958429324,
            "languages": [],
            "name": "Bassodesh"
        },
        {
            "address": "NA",
            "lat": -4.3628259,
            "lng": 35.0709697961415,
            "languages": [],
            "name": "Bassotu Ziwani"
        },
        {
            "address": "NA",
            "lat": -2.52961125,
            "lng": 32.9064197,
            "languages": [],
            "name": "Baylor Pediatric AIDS Clinic"
        },
        {
            "address": "NA",
            "lat": -6.1807785,
            "lng": 37.1461666265547,
            "languages": [],
            "name": "Berega Mission Hospital"
        },
        {
            "address": "NA",
            "lat": -6.80057975,
            "lng": 39.2492007814103,
            "languages": [],
            "name": "Bethel Natural Theraphy Clinic"
        },
        {
            "address": "NA",
            "lat": -2.633783,
            "lng": 31.3140317,
            "languages": [],
            "name": "Biharamulo Designated District Hospital"
        },
        {
            "address": "NA",
            "lat": -4.7666687,
            "lng": 29.6833106534252,
            "languages": [],
            "name": "Bitale Dispensary"
        },
        {
            "address": "NA",
            "lat": -6.5912814,
            "lng": 39.1166285,
            "languages": [],
            "name": "Bomba la maji Zahanati ya Mpiji Mbweni"
        },
        {
            "address": "NA",
            "lat": -5.0651701,
            "lng": 39.1113377,
            "languages": [],
            "name": "Bombo Hospital"
        },
        {
            "address": "NA",
            "lat": -6.7916275,
            "lng": 39.1938773,
            "languages": [],
            "name": "Bondeni Dispensary, Bondeni Dispensary"
        },
        {
            "address": "NA",
            "lat": -4.79384045,
            "lng": 33.3301283039677,
            "languages": [],
            "name": "Budushi Dispensary"
        },
        {
            "address": "NA",
            "lat": -4.66450975,
            "lng": 30.0657155,
            "languages": [],
            "name": "Bugaga Dispensary"
        },
        {
            "address": "NA",
            "lat": -4.59863645,
            "lng": 29.6512429088562,
            "languages": [],
            "name": "Bugamba Dispensary"
        },
        {
            "address": "NA",
            "lat": -3.5949709,
            "lng": 31.9528546,
            "languages": [],
            "name": "Bugando"
        },
        {
            "address": "NA",
            "lat": -2.52833715,
            "lng": 32.9067617,
            "languages": [],
            "name": "Bugando"
        },
        {
            "address": "NA",
            "lat": -2.52725205,
            "lng": 32.907918398609,
            "languages": [],
            "name": "Bugando"
        },
        {
            "address": "NA",
            "lat": -2.5282113,
            "lng": 32.90798315,
            "languages": [],
            "name": "Bugando"
        },
        {
            "address": "NA",
            "lat": -2.52784025,
            "lng": 32.9082602528958,
            "languages": [],
            "name": "Bugando"
        },
        {
            "address": "NA",
            "lat": -2.52854895,
            "lng": 32.9074341018842,
            "languages": [],
            "name": "Bugando"
        },
        {
            "address": "NA",
            "lat": -2.52803005,
            "lng": 32.9073672350244,
            "languages": [],
            "name": "Bugando"
        },
        {
            "address": "NA",
            "lat": -2.5282865,
            "lng": 32.9073998,
            "languages": [],
            "name": "Bugando"
        },
        {
            "address": "NA",
            "lat": -2.5281019,
            "lng": 32.9069855027203,
            "languages": [],
            "name": "Bugando"
        },
        {
            "address": "NA",
            "lat": -2.52864885,
            "lng": 32.9070200834687,
            "languages": [],
            "name": "Bugando"
        },
        {
            "address": "NA",
            "lat": -2.52750885,
            "lng": 32.9073031145748,
            "languages": [],
            "name": "Bugando"
        },
        {
            "address": "NA",
            "lat": -2.52856845,
            "lng": 32.907028397564,
            "languages": [],
            "name": "Bugando"
        },
        {
            "address": "NA",
            "lat": -2.5284286,
            "lng": 32.908040178271,
            "languages": [],
            "name": "Bugando"
        },
        {
            "address": "NA",
            "lat": -2.5285904,
            "lng": 32.9068963206595,
            "languages": [],
            "name": "Bugando"
        },
        {
            "address": "NA",
            "lat": -2.52808685,
            "lng": 32.9077027194756,
            "languages": [],
            "name": "Bugando Medical Center"
        },
        {
            "address": "NA",
            "lat": -2.5285358,
            "lng": 32.90818935,
            "languages": [],
            "name": "Bugando Medical Center"
        },
        {
            "address": "NA",
            "lat": -1.2082278,
            "lng": 31.585235,
            "languages": [],
            "name": "Bugorora dispensary, Bugorora dispensary"
        },