{
    "dataSources": "<a href=\"https://datawarehouse.hrsa.gov/\" target=\"_blank\">U.S. HHS Health Resources & Services Administration</a>, Feb 2018; <a href=\"https://www.kff.org/other/state-indicator/total-population/?currentTimeframe=0&sortModel=%7B%22colId%22:%22Location%22,%22sort%22:%22asc%22%7D\" target=\"_blank\">Kaiser Family Foundation</a>, 2016.",
    "description": "Texas has the highest uninsured rate in the U.S. at 15%, representing 4.2 million people. Health Centers are federally funded, community-based and patient-directed organizations that serve populations with limited access to health care, including low-income populations, and the uninsured. Read more about Health Centers <a href=\"https://www.bphc.hrsa.gov/about/what-is-a-health-center/index.html\" target=\"_blank\">here</a>. Use this map to explore how accessible these centers are for target populations.",
    "subtitle": "HCSDs heavily support vulnerable populations",
    "state": "tx",
    "name": "Health Centers in Texas",
    "providers": [
        {
            "address": "602 Titus St Ste 130, Gilmer, TX 75644",
            "lat": 32.73418722,
            "lng": -94.9444246,
            "languages": [],
            "name": "Wellness Pointe - Gilmer",
            "center_type": "Service Delivery Site"
        },
        {
            "address": "1839 Jacquelyn Dr, Houston, TX 77055",
            "lat": 29.80477847,
            "lng": -95.48083363,
            "languages": [],
            "name": "Spring Branch CHC -  WholeLife Clinic",
            "center_type": "Service Delivery Site"
        },
        {
            "address": "1415 California St, Houston, TX 77006",
            "lat": 29.74509749,
            "lng": -95.39435818,
            "languages": [],
            "name": "Legacy Montrose Clinic",
            "center_type": "Administrative/Service Delivery Site"
        },
        {
            "address": "1615 Hillendahl Blvd Ste 100, Houston, TX 77055",
            "lat": 29.800188,
            "lng": -95.4932747,
            "languages": [],
            "name": "Spring Branch CHC- Hillendahl Clinic",
            "center_type": "Administrative/Service Delivery Site"
        },
        {
            "address": "401 Branard St Rm 300-302, Houston, TX 77006",
            "lat": 29.7370895,
            "lng": -95.38482149,
            "languages": [],
            "name": "Montrose Center Clinic",
            "center_type": "Service Delivery Site"
        },
        {
            "address": "2150 W 18th St, Houston, TX 77008",
            "lat": 29.8014765,
            "lng": -95.43743983,
            "languages": [],
            "name": "HACS: Main Campus",
            "center_type": "Administrative/Service Delivery Site"
        },
        {
            "address": "8575 Pitner Rd, Houston, TX 77080",
            "lat": 29.82935052,
            "lng": -95.50059015,
            "languages": [],
            "name": "Spring Branch CHC- Pitner Clinic",
            "center_type": "Service Delivery Site"
        },
        {
            "address": "1116 Jackson Blvd, Houston, TX 77006",
            "lat": 29.74896051,
            "lng": -95.39276377,
            "languages": [],
            "name": "Legacy Jackson",
            "center_type": "Administrative"
        },
        {
            "address": "1427 Hawthorne St, Houston, TX 77006",
            "lat": 29.74222905,
            "lng": -95.39628532,
            "languages": [],
            "name": "HACS - BOCS Dental Clinic",
            "center_type": "Service Delivery Site"
        },
        {
            "address": "120 S Central Expy, Mckinney, TX 75070",
            "lat": 33.19782841,
            "lng": -96.63950368,
            "languages": [],
            "name": "Family Health Center at Virginia Parkway",
            "center_type": "Service Delivery Site"
        },
        {
            "address": "1407 14th St, Plano, TX 75074",
            "lat": 33.01831245,
            "lng": -96.69434399,
            "languages": [],
            "name": "HSNT Plano Children's Medical Clinic",
            "center_type": "Service Delivery Site"
        },
        {
            "address": "2520 K Ave Ste 100, Plano, TX 75074",
            "lat": 33.03206974,
            "lng": -96.69900769,
            "languages": [],
            "name": "Collin County Adult Clinic",
            "center_type": "Administrative/Service Delivery Site"
        },
        {
            "address": "91 W Side Sq, Cooper, TX 75432",
            "lat": 33.374412,
            "lng": -95.68873541,
            "languages": [],
            "name": "Cooper Community Health Center",
            "center_type": "Service Delivery Site"
        },
        {
            "address": "111 N Johnson St, Farmersville, TX 75442",
            "lat": 33.16409961,
            "lng": -96.36290685,
            "languages": [],
            "name": "FARMERSVILLE FAMILY MEDICAL CLINIC",
            "center_type": "Service Delivery Site"
        },
        {
            "address": "1011 S William St, Atlanta, TX 75551",
            "lat": 33.10505952,
            "lng": -94.16548121,
            "languages": [],
            "name": "Genesis PrimeCare-Atlanta",
            "center_type": "Service Delivery Site"
        },
        {
            "address": "1400 College Dr Ste 204, Texarkana, TX 75503",
            "lat": 33.44889945,
            "lng": -94.06088172,
            "languages": [],
            "name": "East Texas Border Health Clinic dba Genesis PrimeCare Texarkana",
            "center_type": "Service Delivery Site"
        },
        {
            "address": "1102 Main St, Texarkana, TX 75501",
            "lat": 33.42941612,
            "lng": -94.04914435,
            "languages": [],
            "name": "Texarkana Clinic",
            "center_type": "Service Delivery Site"
        },
        {
            "address": "2602 Saint Michael Dr Ste 202, Texarkana, TX 75503",
            "lat": 33.46223079,
            "lng": -94.07544983,
            "languages": [],
            "name": "Genesis Primecare Texarkana OB/GYN",
            "center_type": "Service Delivery Site"
        },
        {
            "address": "920 N Center St, Bonham, TX 75418",
            "lat": 33.58237585,
            "lng": -96.17778901,
            "languages": [],
            "name": "BONHAM COMMUNITY HLTH CENTER",
            "center_type": "Service Delivery Site"
        },
        {
            "address": "3005 Joe Ramsey Blvd E Ste A, Greenville, TX 75401",
            "lat": 33.12051249,
            "lng": -96.11104338,
            "languages": [],
            "name": "Pediatric Center of Greenville",
            "center_type": "Service Delivery Site"
        },
        {
            "address": "3600 Caddo St, Greenville, TX 75401",
            "lat": 33.13298348,
            "lng": -96.11763347,
            "languages": [],
            "name": "CHSA DENTAL CLINIC",
            "center_type": "Service Delivery Site"
        },
        {
            "address": "2824 Terrell Rd, Greenville, TX 75402",
            "lat": 33.10631952,
            "lng": -96.11085311,
            "languages": [],
            "name": "Patient Support Center",
            "center_type": "Administrative"
        },
        {
            "address": "4500 Wesley St, Greenville, TX 75401",
            "lat": 33.12482428,
            "lng": -96.10924475,
            "languages": [],
            "name": "COMMUNITY HEALTH SERVICE AGENCY, INC.",
            "center_type": "Administrative"
        },
        {
            "address": "4311 Wesley St, Greenville, TX 75401",
            "lat": 33.12590693,
            "lng": -96.10916718,
            "languages": [],
            "name": "GREENVILLE COMMUNITY HEALTH CTR",
            "center_type": "Service Delivery Site"
        },
        {
            "address": "3150 Clarksville St, Paris, TX 75460",
            "lat": 33.649016,
            "lng": -95.51861885,
            "languages": [],
            "name": "Paris Clinic",
            "center_type": "Service Delivery Site"
        },
        {
            "address": "106 N Alley St, Jefferson, TX 75657",
            "lat": 32.76229413,
            "lng": -94.35140138,
            "languages": [],
            "name": "East Texas Border Health Clinic dba Genesis PrimeCare-Jefferson",
            "center_type": "Service Delivery Site"
        },
        {
            "address": "101 N Houston St, Kaufman, TX 75142",
            "lat": 32.58933417,
            "lng": -96.31252611,
            "languages": [],
            "name": "KAUFMAN COMMUNITY HLTH CTR",
            "center_type": "Service Delivery Site"
        },
        {
            "address": "1001 N Palestine St, Athens, TX 75751",
            "lat": 32.21901337,
            "lng": -95.85336045,
            "languages": [],
            "name": "FAMILY Circle of Care Athens Clinic",
            "center_type": "Service Delivery Site"
        },
        {
            "address": "205 E Brazos St, Palestine, TX 75801",
            "lat": 31.75374689,
            "lng": -95.62763918,
            "languages": [],
            "name": "Crossroads Family Care Palestine",
            "center_type": "Service Delivery Site"
        },
        {
            "address": "510 E Commerce St, Jacksonville, TX 75766",
            "lat": 31.96498512,
            "lng": -95.26963108,
            "languages": [],
            "name": "FAMILY Circle of Care Jacksonville Clinic",
            "center_type": "Service Delivery Site"
        },
        {
            "address": "5750 Pineland Dr Ste 150, Dallas, TX 75231",
            "lat": 32.87825562,
            "lng": -96.75777003,
            "languages": [],
            "name": "Healing Hands Ministries - Vickery Meadow",
            "center_type": "Service Delivery Site"
        },
        {
            "address": "3515 Shepherd Ln, Balch Springs, TX 75180",
            "lat": 32.72167806,
            "lng": -96.61413044,
            "languages": [],
            "name": "Foremost Family Health Center - Balch Springs",
            "center_type": "Service Delivery Site"
        },
        {
            "address": "201 Ferris Ave, Waxahachie, TX 75165",
            "lat": 32.38795022,
            "lng": -96.84989676,
            "languages": [],
            "name": "Administrative Offices",
            "center_type": "Administrative"
        },
        {
            "address": "411 E Jefferson St, Waxahachie, TX 75165",
            "lat": 32.38290093,
            "lng": -96.84463067,
            "languages": [],
            "name": "Hope Clinic Waxahachie",
            "center_type": "Service Delivery Site"
        },
        {
            "address": "805 W Lampasas St, Ennis, TX 75119",
            "lat": 32.31947036,
            "lng": -96.6325511,
            "languages": [],
            "name": "Hope Clinic Ennis",
            "center_type": "Service Delivery Site"
        },
        {
            "address": "6500 Rookin St, Houston, TX 77074",
            "lat": 29.710629,
            "lng": -95.49686564,
            "languages": [],
            "name": "Legacy Baker Ripley",
            "center_type": "Service Delivery Site"
        },
        {
            "address": "6700 Bellaire Blvd, Houston, TX 77074",
            "lat": 29.70547647,
            "lng": -95.50231533,
            "languages": [],
            "name": "KIPP CONNECT",
            "center_type": "Service Delivery Site"
        },
        {
            "address": "8440 Westpark Dr, Houston, TX 77063",
            "lat": 29.72209936,
            "lng": -95.51266376,
            "languages": [],
            "name": "KIPP Sharpstown",
            "center_type": "Service Delivery Site"
        },
        {
            "address": "6441 High Star Dr, Houston, TX 77074",
            "lat": 29.71062751,
            "lng": -95.49506313,
            "languages": [],
            "name": "Legacy Southwest Clinic",
            "center_type": "Service Delivery Site"
        },
        {
            "address": "6800 West Loop S Ste 560, Bellaire, TX 77401",
            "lat": 29.70531812,
            "lng": -95.45973365,
            "languages": [],
            "name": "St. Hope Community Health Clinic- Bellaire",
            "center_type": "Service Delivery Site"
        },
        {
            "address": "6677 Rookin St, Houston, TX 77074",
            "lat": 29.707308,
            "lng": -95.49678086,
            "languages": [],
            "name": "Legacy Sharpstown Rookin",
            "center_type": "Service Delivery Site"
        },
        {
            "address": "19333 Clay Rd, Katy, TX 77449",
            "lat": 29.83107254,
            "lng": -95.7073626,
            "languages": [],
            "name": "Spring Branch CHC - West Houston Clinc",
            "center_type": "Service Delivery Site"
        },
        {
            "address": "6550 Mapleridge St Ste 106, Houston, TX 77081",
            "lat": 29.70981866,
            "lng": -95.4742616,
            "languages": [],
            "name": "Legacy Mapleridge Clinic",
            "center_type": "Service Delivery Site"
        },
        {
            "address": "8430 Westglen Dr, Houston, TX 77063",
            "lat": 29.72464825,
            "lng": -95.5123561,
            "languages": [],
            "name": "KIPP SHARP",
            "center_type": "Service Delivery Site"
        },
        {
            "address": "800 W Sam Houston Pkwy S Ste 200, Houston, TX 77042",
            "lat": 29.75300835,
            "lng": -95.55844366,
            "languages": [],
            "name": "Spring Branch CHC - Administration",
            "center_type": "Administrative"
        },
        {
            "address": "6565 De Moss Dr, Houston, TX 77074",
            "lat": 29.70717553,
            "lng": -95.49821975,
            "languages": [],
            "name": "YES Prep Gulfton",
            "center_type": "Service Delivery Site"
        },
        {
            "address": "902 Frostwood Dr Ste 142, Houston, TX 77024",
            "lat": 29.77999394,
            "lng": -95.5477288,
            "languages": [],
            "name": "HACS: Bautista",
            "center_type": "Service Delivery Site"
        },
        {
            "address": "19333 Clay Rd, Katy, TX 77449",
            "lat": 29.83107254,
            "lng": -95.7073626,
            "languages": [],
            "name": "Spring Branch CHC - Healthy Community Mobile Clinic",
            "center_type": "Service Delivery Site"
        },
        {
            "address": "1905 Dove Crossing Ln Ste C, Navasota, TX 77868",
            "lat": 30.38859631,
            "lng": -96.06720557,
            "languages": [],
            "name": "GRIMES COUNTY COMMUNITY HC",
            "center_type": "Service Delivery Site"
        },
        {
            "address": "607 W Lassater, Centerville, TX 75833",
            "lat": 31.24677001,
            "lng": -95.98115062,
            "languages": [],
            "name": "LEON COUNTY COMMUNITY HLTH CTR",
            "center_type": "Service Delivery Site"
        },
        {
            "address": "100 W Cross St, Madisonville, TX 77864",
            "lat": 30.94203637,
            "lng": -95.90999763,
            "languages": [],
            "name": "HealthPoint Madisonville",
            "center_type": "Service Delivery Site"
        },
        {
            "address": "201 Lincoln Rdg, Willis, TX 77378",
            "lat": 30.42845503,
            "lng": -95.49367448,
            "languages": [],
            "name": "Lone Star Community Health Center, Inc.",
            "center_type": "Service Delivery Site"
        },
        {
            "address": "1414 S Frazier St Ste 105, Conroe, TX 77301",
            "lat": 30.28538627,
            "lng": -95.45632433,
            "languages": [],
            "name": "St. Hope Community Health Center Clinic",
            "center_type": "Service Delivery Site"
        },
        {
            "address": "13905 Grangerland Rd, Conroe, TX 77306",
            "lat": 30.24898236,
            "lng": -95.32107994,
            "languages": [],
            "name": "Lone Star Community Health Center - Grangerland",
            "center_type": "Service Delivery Site"
        },
        {
            "address": "440 Rayford Rd Ste 150, Spring, TX 77386",
            "lat": 30.12717055,
            "lng": -95.436499,
            "languages": [],
            "name": "Lone Star Community Health Center - Rayford Road",
            "center_type": "Service Delivery Site"
        },
        {
            "address": "605 S Conroe Medical Dr, Conroe, TX 77304",
            "lat": 30.28475245,
            "lng": -95.47128297,
            "languages": [],
            "name": "Lone Star Community Health Center, Inc.",
            "center_type": "Service Delivery Site"
        },
        {
            "address": "11 Woodland Park Dr, Shepherd, TX 77371",
            "lat": 30.50441517,
            "lng": -94.98623321,
            "languages": [],
            "name": "Health Center of Southeast Texas - Shepherd",
            "center_type": "Service Delivery Site"
        },
        {
            "address": "5959 Corporate Dr, Houston, TX 77036",
            "lat": 29.71359,
            "lng": -95.55152239,
            "languages": [],
            "name": "Legacy Contact Center",
            "center_type": "Administrative"
        },
        {
            "address": "9896 Bissonnet St Ste 625, Houston, TX 77036",
            "lat": 29.67528502,
            "lng": -95.55257696,
            "languages": [],
            "name": "Bee Busy Wellness Center",
            "center_type": "Administrative/Service Delivery Site"
        },
        {
            "address": "10435 Greenbough Dr Ste 300, Stafford, TX 77477",
            "lat": 29.62115944,
            "lng": -95.56233482,
            "languages": [],
            "name": "Stafford Center",
            "center_type": "Service Delivery Site"
        },
        {
            "address": "8610 Martin Luther King Blvd, Houston, TX 77033",
            "lat": 29.65813132,
            "lng": -95.33666261,
            "languages": [],
            "name": "MLK",
            "center_type": "Administrative/Service Delivery Site"
        },
        {
            "address": "8500 Highway 6 S, Houston, TX 77083",
            "lat": 29.68604344,
            "lng": -95.64370462,
            "languages": [],
            "name": "KIPP West - Unity",
            "center_type": "Service Delivery Site"
        },
        {
            "address": "307 Texas Pkwy, Missouri City, TX 77489",
            "lat": 29.61756954,
            "lng": -95.53679489,
            "languages": [],
            "name": "Missouri City Center",
            "center_type": "Service Delivery Site"
        },
        {
            "address": "12667 Bissonnet St # 17, Houston, TX 77099",
            "lat": 29.67753759,
            "lng": -95.60146489,
            "languages": [],
            "name": "Legacy Bissonnet Street",
            "center_type": "Service Delivery Site"
        },
        {
            "address": "11000 Scott St, Houston, TX 77047",
            "lat": 29.63855942,
            "lng": -95.36839313,
            "languages": [],
            "name": "KIPP Sunnyside Campus",
            "center_type": "Service Delivery Site"
        },
        {
            "address": "14087 Main St, Houston, TX 77035",
            "lat": 29.63473198,
            "lng": -95.49580624,
            "languages": [],
            "name": "Hillcroft",
            "center_type": "Service Delivery Site"
        },
        {
            "address": "12121 Westheimer Rd Ste 205, Houston, TX 77077",
            "lat": 29.73622551,
            "lng": -95.592993,
            "languages": [],
            "name": "HOPE Clinic WEST",
            "center_type": "Service Delivery Site"
        },
        {
            "address": "2525 Holly Hall St, Houston, TX 77054",
            "lat": 29.68543329,
            "lng": -95.39056669,
            "languages": [],
            "name": "MOBILE DENTAL UNIT",
            "center_type": "Service Delivery Site"
        },
        {
            "address": "8500 Highway 6 S, Houston, TX 77083",
            "lat": 29.68604344,
            "lng": -95.64370462,
            "languages": [],
            "name": "KIPP West - Unity",
            "center_type": "Service Delivery Site"
        },
        {
            "address": "2525 Holly Hall St, Houston, TX 77054",
            "lat": 29.68543329,
            "lng": -95.39056669,
            "languages": [],
            "name": "MOBILE HEALTH VAN",
            "center_type": "Service Delivery Site"
        },
        {
            "address": "9401 Southwest Fwy Ste 127, Houston, TX 77074",
            "lat": 29.67858166,
            "lng": -95.53848399,
            "languages": [],
            "name": "Legacy SAC Site",
            "center_type": "Service Delivery Site"
        },
        {
            "address": "2575 Reed Rd, Houston, TX 77051",
            "lat": 29.65773692,
            "lng": -95.39187114,
            "languages": [],
            "name": "Star of Hope Cornerstone Community",
            "center_type": "Service Delivery Site"
        },
        {
            "address": "7001 Corporate Dr Ste 120, Houston, TX 77036",
            "lat": 29.70269774,
            "lng": -95.55191844,
            "languages": [],
            "name": "Asian American Health Coalition of the Greater Houston Area",
            "center_type": "Administrative/Service Delivery Site"
        },
        {
            "address": "14438 Bellaire Blvd, Houston, TX 77083",
            "lat": 29.70417883,
            "lng": -95.64056716,
            "languages": [],
            "name": "HOPE Clinic Alief",
            "center_type": "Service Delivery Site"
        },
        {
            "address": "10711 Kipp Way Dr, Houston, TX 77099",
            "lat": 29.67094552,
            "lng": -95.56622999,
            "languages": [],
            "name": "KIPP Southwest Campus",
            "center_type": "Service Delivery Site"
        },
        {
            "address": "8785 W Bellfort St, Houston, TX 77031",
            "lat": 29.65599251,
            "lng": -95.53141647,
            "languages": [],
            "name": "Bee Busy Wellness Center",
            "center_type": "Administrative/Service Delivery Site"
        },
        {
            "address": "7777 Westgreen Blvd, Cypress, TX 77433",
            "lat": 29.87962524,
            "lng": -95.74056105,
            "languages": [],
            "name": "Spring Branch CHC - CyFair Clinic",
            "center_type": "Service Delivery Site"
        },
        {
            "address": "5502 1st St, Katy, TX 77493",
            "lat": 29.78639346,
            "lng": -95.8204903,
            "languages": [],
            "name": "Spring Branch CHC - Katy Clinic",
            "center_type": "Service Delivery Site"
        },
        {
            "address": "753 E Travis St, La Grange, TX 78945",
            "lat": 29.90922724,
            "lng": -96.86957417,
            "languages": [],
            "name": "Tejas Health Care",
            "center_type": "Administrative/Service Delivery Site"
        },
        {
            "address": "220 W Guadalupe St, La Grange, TX 78945",
            "lat": 29.90867218,
            "lng": -96.88041371,
            "languages": [],
            "name": "Tejas Health Care Dental Clinic",
            "center_type": "Service Delivery Site"
        },
        {
            "address": "275 Jackson St, Bastrop, TX 78602",
            "lat": 30.10292957,
            "lng": -97.30740662,
            "languages": [],
            "name": "Bastrop Community Health Center",
            "center_type": "Service Delivery Site"
        },
        {
            "address": "902 W 2nd St, Elgin, TX 78621",
            "lat": 30.3484311,
            "lng": -97.37889347,
            "languages": [],
            "name": "Family Health Center in Elgin",
            "center_type": "Service Delivery Site"
        },
        {
            "address": "185 Decker Dr, Giddings, TX 78942",
            "lat": 30.19106771,
            "lng": -96.92674245,
            "languages": [],
            "name": "Tejas Health Care Giddings: Decker Building",
            "center_type": "Service Delivery Site"
        },
        {
            "address": "11111 Research Blvd Ste 345, Austin, TX 78759",
            "lat": 30.40586893,
            "lng": -97.74488184,
            "languages": [],
            "name": "LSCC Family Care Center at Northwest",
            "center_type": "Service Delivery Site"
        },
        {
            "address": "1210 W Braker Ln, Austin, TX 78758",
            "lat": 30.38528367,
            "lng": -97.6938705,
            "languages": [],
            "name": "CommUnityCare - North Central",
            "center_type": "Service Delivery Site"
        },
        {
            "address": "10335 US Highway 290 E, Manor, TX 78653",
            "lat": 30.34558225,
            "lng": -97.57283119,
            "languages": [],
            "name": "Manor",
            "center_type": "Service Delivery Site"
        },
        {
            "address": "600 W Carrie Manor St, Manor, TX 78653",
            "lat": 30.34001349,
            "lng": -97.56203927,
            "languages": [],
            "name": "CommUnityCare Manor",
            "center_type": "Service Delivery Site"
        },
        {
            "address": "1101 Camino La Costa, Austin, TX 78752",
            "lat": 30.32440862,
            "lng": -97.69919329,
            "languages": [],
            "name": "PCC - Camino",
            "center_type": "Service Delivery Site"
        },
        {
            "address": "11111 Research Blvd Ste 320, Austin, TX 78759",
            "lat": 30.40586893,
            "lng": -97.74488184,
            "languages": [],
            "name": "LSCC Family Care Center at Northwest",
            "center_type": "Service Delivery Site"
        },
        {
            "address": "11111 Research Blvd Ste 295, Austin, TX 78759",
            "lat": 30.40586893,
            "lng": -97.74488184,
            "languages": [],
            "name": "LSCC Family Care Center at Northwest",
            "center_type": "Service Delivery Site"
        },
        {
            "address": "2115 Kramer Ln Ste 100, Austin, TX 78758",
            "lat": 30.38937445,
            "lng": -97.71184488,
            "languages": [],
            "name": "CommUnityCare Kramer Administrative Offices",
            "center_type": "Administrative"
        },
        {
            "address": "531 Fm 359 Rd S, Brookshire, TX 77423",
            "lat": 29.77429491,
            "lng": -95.95132182,
            "languages": [],
            "name": "Brookshire Center",
            "center_type": "Service Delivery Site"
        },
        {
            "address": "215 Fm 1488 Rd, Hempstead, TX 77445",
            "lat": 30.09841551,
            "lng": -96.06437202,
            "languages": [],
            "name": "Health Point Hempstead",
            "center_type": "Service Delivery Site"
        },
        {
            "address": "533 Fm 359 Rd S, Brookshire, TX 77423",
            "lat": 29.77449268,
            "lng": -95.9512981,
            "languages": [],
            "name": "Brookshire Center",
            "center_type": "Service Delivery Site"
        },
        {
            "address": "216 W College Ave, Mason, TX 76856",
            "lat": 30.74387349,
            "lng": -99.23291916,
            "languages": [],
            "name": "Frontera Healthcare Network Mason Clinic",
            "center_type": "Service Delivery Site"
        },
        {
            "address": "119 Ellis St, Menard, TX 76859",
            "lat": 30.91662549,
            "lng": -99.78654352,
            "languages": [],
            "name": "Frontera Healthcare Network - Menard Clinic",
            "center_type": "Service Delivery Site"
        },
        {
            "address": "801 E Florida Ave Ste 1090, Midland, TX 79701",
            "lat": 31.98935947,
            "lng": -102.0649405,
            "languages": [],
            "name": "MIDLAND CHC -ADULT FAMILY SVS",
            "center_type": "Service Delivery Site"
        },
        {
            "address": "2502 Delano Ave, Midland, TX 79701",
            "lat": 31.99349915,
            "lng": -102.1037056,
            "languages": [],
            "name": "MCHS Elligibility Office",
            "center_type": "Administrative"
        },
        {
            "address": "400 Rosalind Redfern Grover Pkwy, Midland, TX 79701",
            "lat": 31.99742428,
            "lng": -102.1000055,
            "languages": [],
            "name": "Midland Community Healthcare Services, Women's Services Clinic",
            "center_type": "Service Delivery Site"
        },
        {
            "address": "401 E Illinois Ave, Midland, TX 79701",
            "lat": 31.99971945,
            "lng": -102.0703947,
            "languages": [],
            "name": "Midland Community Healthcare Services, PBCC Sattelite Clinic",
            "center_type": "Service Delivery Site"
        },
        {
            "address": "5001 Andrews Hwy, Midland, TX 79703",
            "lat": 31.99901235,
            "lng": -102.1488657,
            "languages": [],
            "name": "MCHS Administration Office",
            "center_type": "Administrative"
        },
        {
            "address": "600 N Marienfeld St Ste 1090, Midland, TX 79701",
            "lat": 32.00315369,
            "lng": -102.0794201,
            "languages": [],
            "name": "MIDLAND COMMUNITY HEALTHCARE SERVICES, INC.",
            "center_type": "Administrative"
        },
        {
            "address": "2500 Delano Ave, Midland, TX 79701",
            "lat": 31.99367316,
            "lng": -102.1035431,
            "languages": [],
            "name": "MIDLAND CHC PEDIATRIC SVS",
            "center_type": "Service Delivery Site"
        },
        {
            "address": "400 Rosalind Redfern Grover Pkwy Fl 2, Midland, TX 79701",
            "lat": 31.99742428,
            "lng": -102.1000055,
            "languages": [],
            "name": "MCHS Adminisration Offices",
            "center_type": "Administrative"
        },
        {
            "address": "2802 W Walker St, Breckenridge, TX 76424",
            "lat": 32.75729503,
            "lng": -98.93639496,
            "languages": [],
            "name": "ResourceCare Breckenridge",
            "center_type": "Service Delivery Site"
        },
        {
            "address": "2033 W Beauregard Ave, San Angelo, TX 76901",
            "lat": 31.451533,
            "lng": -100.463579,
            "languages": [],
            "name": "LA ESPERANZA CLINIC",
            "center_type": "Administrative/Service Delivery Site"
        },
        {
            "address": "35 E 31st St, San Angelo, TX 76903",
            "lat": 31.49232848,
            "lng": -100.4541379,
            "languages": [],
            "name": "Lakeview Clinic",
            "center_type": "Service Delivery Site"
        },
        {
            "address": "1610 S Chadbourne St, San Angelo, TX 76903",
            "lat": 31.44475774,
            "lng": -100.4345618,
            "languages": [],
            "name": "LA ESPERANZA CLINIC",
            "center_type": "Service Delivery Site"
        },
        {
            "address": "509 College St, Junction, TX 76849",
            "lat": 30.48829547,
            "lng": -99.76589116,
            "languages": [],
            "name": "Frontera Healthcare Network - Junction Clinic",
            "center_type": "Service Delivery Site"
        },
        {
            "address": "1211 S Bridge St, Brady, TX 76825",
            "lat": 31.1260691,
            "lng": -99.33510229,
            "languages": [],
            "name": "Frontera Healthcare Network - Brady Dental",
            "center_type": "Service Delivery Site"
        },
        {
            "address": "2205 S Bridge St, Brady, TX 76825",
            "lat": 31.11086854,
            "lng": -99.33426443,
            "languages": [],
            "name": "Frontera Healthcare Network - Brady Clinic",
            "center_type": "Service Delivery Site"
        },
        {
            "address": "6030 W University Blvd, Odessa, TX 79764",
            "lat": 31.8532706,
            "lng": -102.4484878,
            "languages": [],
            "name": "Family Health Clinic West University",
            "center_type": "Administrative/Service Delivery Site"
        },
        {
            "address": "840 W Clements St, Odessa, TX 79763",
            "lat": 31.83190395,
            "lng": -102.3719894,
            "languages": [],
            "name": "Ector County Hospital District",
            "center_type": "Administrative/Service Delivery Site"
        },
        {
            "address": "1502 N Avenue K, Lamesa, TX 79331",
            "lat": 32.74334972,
            "lng": -101.9657033,
            "languages": [],
            "name": "LAMESA PRIMARY CARE CLINIC",
            "center_type": "Service Delivery Site"
        },
        {
            "address": "1005 N 16th St, Lamesa, TX 79331",
            "lat": 32.74555893,
            "lng": -101.9643045,
            "languages": [],
            "name": "SOUTH PLAINS DENTAL SVS Lamesa",
            "center_type": "Service Delivery Site"
        },
        {
            "address": "1100 W Reynosa Ave, De Leon, TX 76444",
            "lat": 32.11109307,
            "lng": -98.54642858,
            "languages": [],
            "name": "AccelHealth - DeLeon",
            "center_type": "Administrative/Service Delivery Site"
        },
        {
            "address": "551 Eaker St, Eden, TX 76837",
            "lat": 31.22082448,
            "lng": -99.84681386,
            "languages": [],
            "name": "Frontera Healthcare Network - Eden Clinic",
            "center_type": "Service Delivery Site"
        },
        {
            "address": "212 Jackson St, Eden, TX 76837",
            "lat": 31.21563045,
            "lng": -99.84531213,
            "languages": [],
            "name": "Frontera Healthcare Network - Eden Dental",
            "center_type": "Service Delivery Site"
        },
        {
            "address": "604 Eaker St, Eden, TX 76837",
            "lat": 31.22089045,
            "lng": -99.84743099,
            "languages": [],
            "name": "FRONTERA HEALTHCARE NETWORK",
            "center_type": "Administrative"
        },
        {
            "address": "3804 Highway 377 S, Brownwood, TX 76801",
            "lat": 31.68538406,
            "lng": -99.00072203,
            "languages": [],
            "name": "AccelHealth - Brownwood",
            "center_type": "Service Delivery Site"
        },
        {
            "address": "104 S Park Dr, Brownwood, TX 76801",
            "lat": 31.6805884,
            "lng": -98.9954135,
            "languages": [],
            "name": "AccelHealth - Brownwood #2",
            "center_type": "Service Delivery Site"
        },
        {
            "address": "200 N Main St, Cross Plains, TX 76443",
            "lat": 32.12626441,
            "lng": -99.16540958,
            "languages": [],
            "name": "Cross Plains Community Health Center - Dental",
            "center_type": "Service Delivery Site"
        },
        {
            "address": "1712 N Access Rd, Clyde, TX 79510",
            "lat": 32.41243786,
            "lng": -99.48950678,
            "languages": [],
            "name": "ResourceCare Clyde",
            "center_type": "Service Delivery Site"
        },
        {
            "address": "128 W 4th St, Baird, TX 79504",
            "lat": 32.39442832,
            "lng": -99.39467871,
            "languages": [],
            "name": "ResourceCare Baird",
            "center_type": "Service Delivery Site"
        },
        {
            "address": "301 S Main St, Cross Plains, TX 76443",
            "lat": 32.12309663,
            "lng": -99.16547808,
            "languages": [],
            "name": "ResourceCare Cross Plains",
            "center_type": "Service Delivery Site"
        },
        {
            "address": "125 W Park Ave, Hereford, TX 79045",
            "lat": 34.82208654,
            "lng": -102.4074344,
            "languages": [],
            "name": "Regence Health Network, Inc. RMDA - HRF",
            "center_type": "Service Delivery Site"
        },
        {
            "address": "850 Martin Rd, Amarillo, TX 79107",
            "lat": 35.22382216,
            "lng": -101.8121068,
            "languages": [],
            "name": "Regence Health Network, Inc. RMDA - AMR",
            "center_type": "Service Delivery Site"
        },
        {
            "address": "1301 S Coulter St Ste 200, Amarillo, TX 79106",
            "lat": 35.19970092,
            "lng": -101.9218499,
            "languages": [],
            "name": "Regence Health Network, Inc. RMA - ACS",
            "center_type": "Service Delivery Site"
        },
        {
            "address": "723 N Taylor St Ste B, Amarillo, TX 79107",
            "lat": 35.22089329,
            "lng": -101.8331668,
            "languages": [],
            "name": "Regence Health Network, Inc. RMA â€“ ATS",
            "center_type": "Service Delivery Site"
        },
        {
            "address": "1000 Juarez St Bldg A, Wichita Falls, TX 76301",
            "lat": 33.91211438,
            "lng": -98.47396964,
            "languages": [],
            "name": "Community Healthcare Center - Juarez Medical Clinic",
            "center_type": "Service Delivery Site"
        },
        {
            "address": "110 Lee St, Wichita Falls, TX 76301",
            "lat": 33.92060382,
            "lng": -98.49244773,
            "languages": [],
            "name": "Community Healthcare Center - Phyllis Hiraki Dental Clinic",
            "center_type": "Service Delivery Site"
        },
        {
            "address": "200 Mlk Jr Blvd, Wichita Falls, TX 76301",
            "lat": 33.92051944,
            "lng": -98.49076733,
            "languages": [],
            "name": "NORTH CENTRAL TX COMMUNITY HEALTH CARE CENTER, INC.",
            "center_type": "Administrative/Service Delivery Site"
        },
        {
            "address": "1301 3rd St Ste 200, Wichita Falls, TX 76301",
            "lat": 33.9132081,
            "lng": -98.50239653,
            "languages": [],
            "name": "Family Health Center",
            "center_type": "Service Delivery Site"
        },
        {
            "address": "2548 Memorial Blvd, Port Arthur, TX 77640",
            "lat": 29.90422536,
            "lng": -93.93620714,
            "languages": [],
            "name": "GULF COAST HEALTH CENTER, INC. - PORT ARTHUR",
            "center_type": "Administrative/Service Delivery Site"
        },
        {
            "address": "4450 Highland Ave, Beaumont, TX 77705",
            "lat": 30.04307163,
            "lng": -94.08548525,
            "languages": [],
            "name": "Legacy South Park Campus",
            "center_type": "Service Delivery Site"
        },
        {
            "address": "3501 Sgt Lucien Adams Blvd, Port Arthur, TX 77642",
            "lat": 29.9327628,
            "lng": -93.96864948,
            "languages": [],
            "name": "Gulf Coast Health Center Memorial High School Campus-TEMP SITE",
            "center_type": "Service Delivery Site"
        },
        {
            "address": "450 N 11th St, Beaumont, TX 77702",
            "lat": 30.08486622,
            "lng": -94.12975078,
            "languages": [],
            "name": "Legacy Central Beaumont",
            "center_type": "Service Delivery Site"
        },
        {
            "address": "TX-73 W, Port Arthur, TX 77642",
            "lat": 29.95958264,
            "lng": -93.87613395,
            "languages": [],
            "name": "Gulf Coast Health Center Inc Hwy 73 Campus",
            "center_type": "Service Delivery Site"
        },
        {
            "address": "2548 Memorial Blvd, Port Arthur, TX 77640",
            "lat": 29.90422536,
            "lng": -93.93620714,
            "languages": [],
            "name": "Gulf Coast Health Center - Mobile 1",
            "center_type": "Service Delivery Site"
        },
        {
            "address": "601 Rev Dr Ransom Howard St, Port Arthur, TX 77640",
            "lat": 29.87436913,
            "lng": -93.93677209,
            "languages": [],
            "name": "GULF COAST HEALTH CENTER, INC. - WEST SIDE",
            "center_type": "Service Delivery Site"
        },
        {
            "address": "1495 N 7th St, Beaumont, TX 77702",
            "lat": 30.0953343,
            "lng": -94.12055429,
            "languages": [],
            "name": "Triangle Area Network",
            "center_type": "Administrative/Service Delivery Site"
        },
        {
            "address": "401 N Gulf Blvd, Freeport, TX 77541",
            "lat": 28.96506351,
            "lng": -95.36353712,
            "languages": [],
            "name": "Velasco Elementary Health Center",
            "center_type": "Service Delivery Site"
        },
        {
            "address": "1103 N Avenue H, Freeport, TX 77541",
            "lat": 28.97155536,
            "lng": -95.36897739,
            "languages": [],
            "name": "Brazos Place Integrated Community Health Center",
            "center_type": "Service Delivery Site"
        },
        {
            "address": "796 N Highway 288B, Clute, TX 77531",
            "lat": 29.03268966,
            "lng": -95.39819509,
            "languages": [],
            "name": "Brazoria County Dream Center Integrated Health Clinic",
            "center_type": "Service Delivery Site"
        },
        {
            "address": "905 N Gulf Blvd, Freeport, TX 77541",
            "lat": 28.96800252,
            "lng": -95.36858477,
            "languages": [],
            "name": "Freeport Community Health Center",
            "center_type": "Service Delivery Site"
        },
        {
            "address": "101 Tigner St, Angleton, TX 77515",
            "lat": 29.18254154,
            "lng": -95.43481238,
            "languages": [],
            "name": "Angleton Integrated Health Clinic",
            "center_type": "Service Delivery Site"
        },
        {
            "address": "1618 N Avenue J, Freeport, TX 77541",
            "lat": 28.97553156,
            "lng": -95.37165887,
            "languages": [],
            "name": "Salvation Army Integrated Community Health Center",
            "center_type": "Service Delivery Site"
        },
        {
            "address": "9850C Emmett F Lowry Expy Ste C103, Texas City, TX 77591",
            "lat": 29.40183079,
            "lng": -95.01961842,
            "languages": [],
            "name": "Coastal Health & Wellness - Texas City",
            "center_type": "Service Delivery Site"
        },
        {
            "address": "702 Greenbriar Ave, Friendswood, TX 77546",
            "lat": 29.51488575,
            "lng": -95.21077285,
            "languages": [],
            "name": "TEMPORARY SITE-Hurricane Harvey Friendswood HS",
            "center_type": "Service Delivery Site"
        },
        {
            "address": "4700 Broadway St Ste 100, Galveston, TX 77551",
            "lat": 29.29301321,
            "lng": -94.81957435,
            "languages": [],
            "name": "Coastal Health & Wellness - Galveston",
            "center_type": "Service Delivery Site"
        },
        {
            "address": "416 Morningside Dr, Friendswood, TX 77546",
            "lat": 29.52998591,
            "lng": -95.19888134,
            "languages": [],
            "name": "TEMPORARY SITE-Hurricane Harvey Morningside Dr",
            "center_type": "Service Delivery Site"
        },
        {
            "address": "2880 W Walker St, League City, TX 77573",
            "lat": 29.47471593,
            "lng": -95.08711875,
            "languages": [],
            "name": "TEMPORARY SITE-Hurricane Harvey West Walker St",
            "center_type": "Service Delivery Site"
        },
        {
            "address": "100 W League City Pkwy, League City, TX 77573",
            "lat": 29.49266422,
            "lng": -95.08132883,
            "languages": [],
            "name": "TEMPORARY SITE-Hurricane Harvey-East League City",
            "center_type": "Service Delivery Site"
        },
        {
            "address": "9850 Emmett F Lowry Expy, Texas City, TX 77591",
            "lat": 29.40183079,
            "lng": -95.01961842,
            "languages": [],
            "name": "Coastal Health & Wellness",
            "center_type": "Administrative"
        },
        {
            "address": "123 Rosenberg St Fl 4, Galveston, TX 77550",
            "lat": 29.30712614,
            "lng": -94.79710388,
            "languages": [],
            "name": "Galveston Integrated Health Clinic",
            "center_type": "Service Delivery Site"
        },
        {
            "address": "9850C Emmett F Lowry Expy Ste C103, Texas City, TX 77591",
            "lat": 29.40183079,
            "lng": -95.01961842,
            "languages": [],
            "name": "Mobile Van #1",
            "center_type": "Service Delivery Site"
        },
        {
            "address": "1104 Jefferson Ave, Seguin, TX 78155",
            "lat": 29.56630051,
            "lng": -97.98257266,
            "languages": [],
            "name": "Seguin Family Health Center",
            "center_type": "Service Delivery Site"
        },
        {
            "address": "1201 W Court St, Seguin, TX 78155",
            "lat": 29.56923252,
            "lng": -97.98428186,
            "languages": [],
            "name": "SEGUIN FAMILY HEALTH CENTER",
            "center_type": "Service Delivery Site"
        },
        {
            "address": "115 E Main, Benavides, TX 78341",
            "lat": 27.59766533,
            "lng": -98.41434318,
            "languages": [],
            "name": "Community Action Health Center Duval",
            "center_type": "Service Delivery Site"
        },
        {
            "address": "101 W Potts St, Falfurrias, TX 78355",
            "lat": 27.21515187,
            "lng": -98.14584536,
            "languages": [],
            "name": "Community Action Integration Center Falfurrias",
            "center_type": "Service Delivery Site"
        },
        {
            "address": "1302 S St Marys St, Falfurrias, TX 78355",
            "lat": 27.21510224,
            "lng": -98.14582151,
            "languages": [],
            "name": "Falfurrias Health Center",
            "center_type": "Service Delivery Site"
        },
        {
            "address": "473 State Highway 285, Hebbronville, TX 78361",
            "lat": 27.29993634,
            "lng": -98.67554412,
            "languages": [],
            "name": "Hebbronville",
            "center_type": "Service Delivery Site"
        },
        {
            "address": "312 N Butler St, Karnes City, TX 78118",
            "lat": 28.88711522,
            "lng": -97.90411691,
            "languages": [],
            "name": "Karnes Community Health Center Dental Suite",
            "center_type": "Service Delivery Site"
        },
        {
            "address": "302 N Butler St, Karnes City, TX 78118",
            "lat": 28.88750744,
            "lng": -97.90412216,
            "languages": [],
            "name": "KARNES COMMUNITY HEALTH CENTER",
            "center_type": "Service Delivery Site"
        },
        {
            "address": "201 S Los Ebanos Rd, Mission, TX 78573",
            "lat": 26.28814329,
            "lng": -98.32987011,
            "languages": [],
            "name": "NUESTRA CLINICA DEL VALLE - MEMORIAL",
            "center_type": "Service Delivery Site"
        },
        {
            "address": "300 N 86th St, Edinburg, TX 78542",
            "lat": 26.29600659,
            "lng": -98.06874615,
            "languages": [],
            "name": "NUESTRA CLINICA DEL VALLE - SAN CARLOS",
            "center_type": "Service Delivery Site"
        },
        {
            "address": "1518 E Santa Rosa Ave, Edcouch, TX 78538",
            "lat": 26.29407752,
            "lng": -97.94593349,
            "languages": [],
            "name": "NUESTRA CLINICA DEL VALLE - EDCOUCH",
            "center_type": "Service Delivery Site"
        },
        {
            "address": "1500 W 1st St, Mercedes, TX 78570",
            "lat": 26.15083856,
            "lng": -97.92495344,
            "languages": [],
            "name": "NUESTRA CLINICA DEL VALLE - MERCEDES",
            "center_type": "Service Delivery Site"
        },
        {
            "address": "105 E Thornton, Three Rivers, TX 78071",
            "lat": 28.46065204,
            "lng": -98.18213572,
            "languages": [],
            "name": "Live Oak Community Health Center",
            "center_type": "Service Delivery Site"
        },
        {
            "address": "3607 Rivera Ave, El Paso, TX 79905",
            "lat": 31.77135148,
            "lng": -106.4505598,
            "languages": [],
            "name": "PROJECT VIDA HEALTH CENTER",
            "center_type": "Administrative"
        },
        {
            "address": "721 S Ochoa St, El Paso, TX 79901",
            "lat": 31.75359572,
            "lng": -106.4800224,
            "languages": [],
            "name": "CHILD & ADOLESCENT WELLNESS CENTER",
            "center_type": "Service Delivery Site"
        },
        {
            "address": "3501 Hueco Ave, El Paso, TX 79903",
            "lat": 31.78573401,
            "lng": -106.4519831,
            "languages": [],
            "name": "Hueco Clinic",
            "center_type": "Service Delivery Site"
        },
        {
            "address": "3607 Rivera Ave, El Paso, TX 79905",
            "lat": 31.77135148,
            "lng": -106.4505598,
            "languages": [],
            "name": "Mobile Medical Vann",
            "center_type": "Service Delivery Site"
        },
        {
            "address": "8061 Alameda Ave, El Paso, TX 79915",
            "lat": 31.72428059,
            "lng": -106.3562967,
            "languages": [],
            "name": "CENTRO SAN VICENTE",
            "center_type": "Administrative/Service Delivery Site"
        },
        {
            "address": "6040 Surety Dr Unit 2, El Paso, TX 79905",
            "lat": 31.78009481,
            "lng": -106.4119761,
            "languages": [],
            "name": "Surety Health Center",
            "center_type": "Service Delivery Site"
        },
        {
            "address": "823 E Yandell Dr, El Paso, TX 79902",
            "lat": 31.76691416,
            "lng": -106.4852694,
            "languages": [],
            "name": "Yandell Satellite Clinic",
            "center_type": "Service Delivery Site"
        },
        {
            "address": "1314 E Yandell Dr, El Paso, TX 79902",
            "lat": 31.77022191,
            "lng": -106.4799979,
            "languages": [],
            "name": "La Fe Administration",
            "center_type": "Administrative"
        },
        {
            "address": "125 W Hague Rd Ste 390, El Paso, TX 79902",
            "lat": 31.77052747,
            "lng": -106.4990768,
            "languages": [],
            "name": "JOSE ROMAN PEDIATRIC CLINIC",
            "center_type": "Service Delivery Site"
        },
        {
            "address": "7000 Fifth St, Canutillo, TX 79835",
            "lat": 31.91275205,
            "lng": -106.5952536,
            "languages": [],
            "name": "Canutillo Health Center",
            "center_type": "Service Delivery Site"
        },
        {
            "address": "200 Lisbon St, El Paso, TX 79905",
            "lat": 31.76669602,
            "lng": -106.4246617,
            "languages": [],
            "name": "Lisbon Satellite Clinic",
            "center_type": "Service Delivery Site"
        },
        {
            "address": "14900 Greg Dr, El Paso, TX 79938",
            "lat": 31.79808472,
            "lng": -106.1628032,
            "languages": [],
            "name": "Montana Vista Health Center",
            "center_type": "Service Delivery Site"
        },
        {
            "address": "3501 Hueco Ave, El Paso, TX 79903",
            "lat": 31.78573401,
            "lng": -106.4519831,
            "languages": [],
            "name": "Hueco Health Center",
            "center_type": "Service Delivery Site"
        },
        {
            "address": "4875 Maxwell Ave Ste Be, El Paso, TX 79904",
            "lat": 31.86697339,
            "lng": -106.429031,
            "languages": [],
            "name": "NORTHEAST FAMILY PRACTICE",
            "center_type": "Service Delivery Site"
        },
        {
            "address": "1208 Myrtle Ave, El Paso, TX 79901",
            "lat": 31.76459966,
            "lng": -106.4763858,
            "languages": [],
            "name": "HOMELESS CLINIC",
            "center_type": "Service Delivery Site"
        },
        {
            "address": "3612 Pera Ave, El Paso, TX 79905",
            "lat": 31.77229554,
            "lng": -106.45038,
            "languages": [],
            "name": "NAFTZGER CLINIC",
            "center_type": "Service Delivery Site"
        },
        {
            "address": "608 S Saint Vrain St, El Paso, TX 79901",
            "lat": 31.75537748,
            "lng": -106.4782822,
            "languages": [],
            "name": "Social Services",
            "center_type": "Administrative"
        },
        {
            "address": "14900 Greg Dr, El Paso, TX 79938",
            "lat": 31.79808472,
            "lng": -106.1628032,
            "languages": [],
            "name": "Project Vida Mobile Dental Trailer",
            "center_type": "Service Delivery Site"
        },
        {
            "address": "1713 Banker Rd, Canutillo, TX 79835",
            "lat": 31.96109448,
            "lng": -106.5693414,
            "languages": [],
            "name": "WESTWAY SATELLITE CLINIC",
            "center_type": "Service Delivery Site"
        },
        {
            "address": "700 S Ochoa St, El Paso, TX 79901",
            "lat": 31.75378423,
            "lng": -106.4800196,
            "languages": [],
            "name": "CENTRAL CLINIC",
            "center_type": "Service Delivery Site"
        },
        {
            "address": "1626 Medical Center Dr, El Paso, TX 79902",
            "lat": 31.77787555,
            "lng": -106.4796277,
            "languages": [],
            "name": "Youth Center",
            "center_type": "Service Delivery Site"
        },
        {
            "address": "13000 Emerald Pass Ave, Horizon City, TX 79928",
            "lat": 31.69728186,
            "lng": -106.2337682,
            "languages": [],
            "name": "Eastlake High School",
            "center_type": "Service Delivery Site"
        },
        {
            "address": "150 Nonap Rd, El Paso, TX 79928",
            "lat": 31.68076583,
            "lng": -106.2497285,
            "languages": [],
            "name": "Mission Ridge Elementary",
            "center_type": "Service Delivery Site"
        },
        {
            "address": "10780 Pebble Hills Blvd, El Paso, TX 79935",
            "lat": 31.78361249,
            "lng": -106.32492,
            "languages": [],
            "name": "Centro San Vicente at Pebble Hills",
            "center_type": "Service Delivery Site"
        },
        {
            "address": "1505 Mescalero Dr, El Paso, TX 79925",
            "lat": 31.78666355,
            "lng": -106.4087514,
            "languages": [],
            "name": "La Fe CARE Center-HIV/AIDS",
            "center_type": "Service Delivery Site"
        },
        {
            "address": "1600 Montana Ave, El Paso, TX 79902",
            "lat": 31.77327788,
            "lng": -106.476958,
            "languages": [],
            "name": "Centro San Vicente&#39;s Wellness Center at Emergence Healthcare Network",
            "center_type": "Service Delivery Site"
        },
        {
            "address": "302 W Highway 21, Caldwell, TX 77836",
            "lat": 30.53352162,
            "lng": -96.69814674,
            "languages": [],
            "name": "Caldwell Community Health Clinic",
            "center_type": "Service Delivery Site"
        },
        {
            "address": "1103 Woodson Dr, Caldwell, TX 77836",
            "lat": 30.52057147,
            "lng": -96.71741457,
            "languages": [],
            "name": "HealthPoint Caldwell",
            "center_type": "Service Delivery Site"
        },
        {
            "address": "600 Memory Ln, Somerville, TX 77879",
            "lat": 30.34452498,
            "lng": -96.5287891,
            "languages": [],
            "name": "HealthPoint Somerville",
            "center_type": "Service Delivery Site"
        },
        {
            "address": "3370 S Texas Ave, Bryan, TX 77802",
            "lat": 30.6399408,
            "lng": -96.3492403,
            "languages": [],
            "name": "BRYAN COLLEGE STATION CHC",
            "center_type": "Service Delivery Site"
        },
        {
            "address": "1301 Memorial Dr, Bryan, TX 77802",
            "lat": 30.65115782,
            "lng": -96.34535888,
            "languages": [],
            "name": "HealthPoint Memorial",
            "center_type": "Service Delivery Site"
        },
        {
            "address": "2700 E 29th St Ste 300, Bryan, TX 77802",
            "lat": 30.65702949,
            "lng": -96.34648039,
            "languages": [],
            "name": "Health Point - Bryan",
            "center_type": "Service Delivery Site"
        },
        {
            "address": "1602 Rock Prairie Rd Ste 300, College Station, TX 77845",
            "lat": 30.58256117,
            "lng": -96.29136641,
            "languages": [],
            "name": "Health Point ABC",
            "center_type": "Service Delivery Site"
        },
        {
            "address": "624 Mary Lake Dr, Bryan, TX 77801",
            "lat": 30.63874133,
            "lng": -96.34904166,
            "languages": [],
            "name": "Community Health Dental Clinic",
            "center_type": "Service Delivery Site"
        },
        {
            "address": "1911 N Martin Luther King Jr Blvd, Waco, TX 76704",
            "lat": 31.57642156,
            "lng": -97.14386909,
            "languages": [],
            "name": "Martin Luther King Community Clinic",
            "center_type": "Service Delivery Site"
        },
        {
            "address": "110 S 12th St, Waco, TX 76701",
            "lat": 31.55115991,
            "lng": -97.13803022,
            "languages": [],
            "name": "Austin Avenue Clinic",
            "center_type": "Service Delivery Site"
        },
        {
            "address": "4601 N 19th St, Waco, TX 76708",
            "lat": 31.58786903,
            "lng": -97.1799496,
            "languages": [],
            "name": "Community Clinic at MCC",
            "center_type": "Service Delivery Site"
        },
        {
            "address": "1800 Gurley Ln, Waco, TX 76706",
            "lat": 31.52531799,
            "lng": -97.11912121,
            "languages": [],
            "name": "SOUTH 18TH STREET COMMUNITY CL.",
            "center_type": "Service Delivery Site"
        },
        {
            "address": "1226 Washington Ave, Waco, TX 76701",
            "lat": 31.55146401,
            "lng": -97.13978156,
            "languages": [],
            "name": "Meyer Center Community Clinic",
            "center_type": "Service Delivery Site"
        },
        {
            "address": "911 S 20th St, Waco, TX 76706",
            "lat": 31.53792649,
            "lng": -97.13735958,
            "languages": [],
            "name": "BELL'S HILL COMMUNITY CLINIC",
            "center_type": "Service Delivery Site"
        },
        {
            "address": "609 Elm St, Waco, TX 76704",
            "lat": 31.56633349,
            "lng": -97.12342067,
            "languages": [],
            "name": "ELM AVENUE COMMUNITY CLINIC",
            "center_type": "Service Delivery Site"
        },
        {
            "address": "1600 Providence Dr, Waco, TX 76707",
            "lat": 31.55925004,
            "lng": -97.1536203,
            "languages": [],
            "name": "FAMILY HEALTH CENTER",
            "center_type": "Service Delivery Site"
        },
        {
            "address": "3400 Bellmead Dr, Waco, TX 76705",
            "lat": 31.59244802,
            "lng": -97.09785163,
            "languages": [],
            "name": "BELLMEAD COMMUNITY CLINIC",
            "center_type": "Service Delivery Site"
        },
        {
            "address": "600 W State Highway 6, Waco, TX 76712",
            "lat": 31.51711324,
            "lng": -97.20260781,
            "languages": [],
            "name": "West Waco Community Clinic",
            "center_type": "Service Delivery Site"
        },
        {
            "address": "2201 Macarthur Dr, Waco, TX 76708",
            "lat": 31.55553096,
            "lng": -97.17774108,
            "languages": [],
            "name": "MacArthur Pediatric Clinic",
            "center_type": "Service Delivery Site"
        },
        {
            "address": "500 Johnson Dr, Mc Gregor, TX 76657",
            "lat": 31.43107781,
            "lng": -97.41815367,
            "languages": [],
            "name": "MCGREGOR COMMUNITY CLINIC",
            "center_type": "Service Delivery Site"
        },
        {
            "address": "1000 W Brown St, Hearne, TX 77859",
            "lat": 30.87190631,
            "lng": -96.59971056,
            "languages": [],
            "name": "ROBERTSON COUNTY COMM HLTH CLIN",
            "center_type": "Service Delivery Site"
        },
        {
            "address": "808 W US Highway 79, Franklin, TX 77856",
            "lat": 31.01995807,
            "lng": -96.49431511,
            "languages": [],
            "name": "HealthPoint Franklin",
            "center_type": "Service Delivery Site"
        },
        {
            "address": "709 Barton St, Hearne, TX 77859",
            "lat": 30.87109326,
            "lng": -96.59531788,
            "languages": [],
            "name": "HealthPoint Hearne",
            "center_type": "Service Delivery Site"
        },
        {
            "address": "15822 Foothill Farms Loop, Pflugerville, TX 78660",
            "lat": 30.44882837,
            "lng": -97.65149905,
            "languages": [],
            "name": "CommUnityCare Pflugerville",
            "center_type": "Service Delivery Site"
        },
        {
            "address": "1212 Prairie St, Houston, TX 77002",
            "lat": 29.75938482,
            "lng": -95.35968552,
            "languages": [],
            "name": "CATHEDRAL CLINIC",
            "center_type": "Service Delivery Site"
        },
        {
            "address": "1603 Mcgowen St, Houston, TX 77004",
            "lat": 29.74205942,
            "lng": -95.36851847,
            "languages": [],
            "name": "SALVATION ARMY FAMILY",
            "center_type": "Service Delivery Site"
        },
        {
            "address": "600 E Tidwell Rd Ste B # 100, Houston, TX 77022",
            "lat": 29.84541854,
            "lng": -95.39060272,
            "languages": [],
            "name": "CCIHS@Berry Rd",
            "center_type": "Service Delivery Site"
        },
        {
            "address": "1717 Congress St, Houston, TX 77002",
            "lat": 29.75827054,
            "lng": -95.35403666,
            "languages": [],
            "name": "SALLY'S HOUSE",
            "center_type": "Service Delivery Site"
        },
        {
            "address": "17010 Sugar Pine Dr, Houston, TX 77090",
            "lat": 30.01061954,
            "lng": -95.45981953,
            "languages": [],
            "name": "HACS: Spring-Cypress",
            "center_type": "Administrative/Service Delivery Site"
        },
        {
            "address": "607 Thornton Rd, Houston, TX 77018",
            "lat": 29.83254054,
            "lng": -95.40878005,
            "languages": [],
            "name": "Jackson Hinds Garden",
            "center_type": "Service Delivery Site"
        },
        {
            "address": "5400 Martin Luther King Blvd, Houston, TX 77021",
            "lat": 29.70129255,
            "lng": -95.33561892,
            "languages": [],
            "name": "KIPP Third Ward Campus",
            "center_type": "Service Delivery Site"
        },
        {
            "address": "1811 Ruiz St, Houston, TX 77002",
            "lat": 29.76019216,
            "lng": -95.3516974,
            "languages": [],
            "name": "STAR OF HOPE MEN'S DEV CTR  OUTREACH)",
            "center_type": "Service Delivery Site"
        },
        {
            "address": "2808 Caroline St Ste 210, Houston, TX 77004",
            "lat": 29.7425666,
            "lng": -95.3725353,
            "languages": [],
            "name": "Legacy Caroline - Administrative",
            "center_type": "Administrative"
        },
        {
            "address": "9606 Mesa Dr, Houston, TX 77078",
            "lat": 29.85074583,
            "lng": -95.2622604,
            "languages": [],
            "name": "KIPP Legacy Preparatory School",
            "center_type": "Service Delivery Site"
        },
        {
            "address": "1934 Caroline St, Houston, TX 77002",
            "lat": 29.74809787,
            "lng": -95.36815504,
            "languages": [],
            "name": "CAROLINE STREET CLINIC",
            "center_type": "Administrative/Service Delivery Site"
        },
        {
            "address": "3401 Fannin St, Houston, TX 77004",
            "lat": 29.73964295,
            "lng": -95.37725914,
            "languages": [],
            "name": "Lord of the Streets",
            "center_type": "Service Delivery Site"
        },
        {
            "address": "602 Girard St, Houston, TX 77007",
            "lat": 29.76747415,
            "lng": -95.36404573,
            "languages": [],
            "name": "Harmony House Respite Center",
            "center_type": "Service Delivery Site"
        },
        {
            "address": "14929 Old Humble Rd Ste E, Humble, TX 77396",
            "lat": 29.9384011,
            "lng": -95.28580288,
            "languages": [],
            "name": "North Forest",
            "center_type": "Service Delivery Site"
        },
        {
            "address": "5602 Lyons Ave, Houston, TX 77020",
            "lat": 29.77644453,
            "lng": -95.3144193,
            "languages": [],
            "name": "Legacy Lyons Clinic",
            "center_type": "Service Delivery Site"
        },
        {
            "address": "10044 Wallisville Rd, Houston, TX 77013",
            "lat": 29.79359887,
            "lng": -95.25316515,
            "languages": [],
            "name": "J.W. Oates Elementary School",
            "center_type": "Service Delivery Site"
        },
        {
            "address": "1102 Pinemont Dr Ste A, Houston, TX 77018",
            "lat": 29.8409915,
            "lng": -95.42298341,
            "languages": [],
            "name": "Acres Home",
            "center_type": "Service Delivery Site"
        },
        {
            "address": "3811 Lyons Ave, Houston, TX 77020",
            "lat": 29.77598948,
            "lng": -95.33157341,
            "languages": [],
            "name": "Legacy Fifth Ward Lyons",
            "center_type": "Service Delivery Site"
        },
        {
            "address": "2118 Washington Ave, Houston, TX 77007",
            "lat": 29.76811037,
            "lng": -95.38004991,
            "languages": [],
            "name": "SALVATION ARMY ADULT REHAB CTR",
            "center_type": "Service Delivery Site"
        },
        {
            "address": "1811 Ruiz St, Houston, TX 77002",
            "lat": 29.76019216,
            "lng": -95.3516974,
            "languages": [],
            "name": "STAR OF HOPE MEN'S SHELTER",
            "center_type": "Service Delivery Site"
        },
        {
            "address": "3315 Delano St, Houston, TX 77004",
            "lat": 29.73159803,
            "lng": -95.36222108,
            "languages": [],
            "name": "Riverside",
            "center_type": "Service Delivery Site"
        },
        {
            "address": "5515 South Loop E, Houston, TX 77033",
            "lat": 29.68760434,
            "lng": -95.33584249,
            "languages": [],
            "name": "YES Prep Southside",
            "center_type": "Service Delivery Site"
        },
        {
            "address": "2601 Dimmitt Rd Ste 104B, Plainview, TX 79072",
            "lat": 34.20695699,
            "lng": -101.7312603,
            "languages": [],
            "name": "Regence Health Network, Inc. RMA - PAS",
            "center_type": "Service Delivery Site"
        },
        {
            "address": "2601 Dimmitt Rd Ste 104A, Plainview, TX 79072",
            "lat": 34.20695699,
            "lng": -101.7312603,
            "languages": [],
            "name": "Regence Health Network, Inc. RMA - PAS",
            "center_type": "Service Delivery Site"
        },
        {
            "address": "2801 W 8th St, Plainview, TX 79072",
            "lat": 34.18774389,
            "lng": -101.7369321,
            "languages": [],
            "name": "Regence Health Network, Inc. RDA - PLNV",
            "center_type": "Administrative/Service Delivery Site"
        },
        {
            "address": "1610 5th St, Lubbock, TX 79401",
            "lat": 33.59132945,
            "lng": -101.8537425,
            "languages": [],
            "name": "Community Health Center of Lubbock - Medical Mobile Unit",
            "center_type": "Service Delivery Site"
        },
        {
            "address": "406 Martin Luther King Blvd, Lubbock, TX 79403",
            "lat": 33.59163089,
            "lng": -101.8183408,
            "languages": [],
            "name": "Parkway Community Health Center",
            "center_type": "Service Delivery Site"
        },
        {
            "address": "1826 Parkway Dr, Lubbock, TX 79403",
            "lat": 33.59420404,
            "lng": -101.8147701,
            "languages": [],
            "name": "CHCL Community Dental Clinic (Parkway Plaza Strip Center)",
            "center_type": "Service Delivery Site"
        },
        {
            "address": "University Ave, Lubbock, TX 79413",
            "lat": 33.5610824,
            "lng": -101.8706081,
            "languages": [],
            "name": "Administrative Annex",
            "center_type": "Service Delivery Site"
        },
        {
            "address": "2301 Cedar Ave, Lubbock, TX 79404",
            "lat": 33.57423571,
            "lng": -101.8334349,
            "languages": [],
            "name": "Chatman Community Health Center",
            "center_type": "Service Delivery Site"
        },
        {
            "address": "3301 Clovis Rd, Lubbock, TX 79415",
            "lat": 33.6131037,
            "lng": -101.8849931,
            "languages": [],
            "name": "Arnett Benson Medical and Dental Clinic",
            "center_type": "Service Delivery Site"
        },
        {
            "address": "1318 Broadway, Lubbock, TX 79401",
            "lat": 33.58454053,
            "lng": -101.8498818,
            "languages": [],
            "name": "John Buesseler Eye Clinic",
            "center_type": "Service Delivery Site"
        },
        {
            "address": "301 40th St, Lubbock, TX 79404",
            "lat": 33.55781739,
            "lng": -101.8374941,
            "languages": [],
            "name": "Larry Combest Community Health and Wellness Center",
            "center_type": "Administrative/Service Delivery Site"
        },
        {
            "address": "5424 19th St Ste 200, Lubbock, TX 79407",
            "lat": 33.578388,
            "lng": -101.9310385,
            "languages": [],
            "name": "CHCL West Medical and Dental Clinic",
            "center_type": "Service Delivery Site"
        },
        {
            "address": "1614 Avenue K, Lubbock, TX 79401",
            "lat": 33.58022366,
            "lng": -101.8479355,
            "languages": [],
            "name": "Walker House",
            "center_type": "Service Delivery Site"
        },
        {
            "address": "3502 9th St Ste 280, Lubbock, TX 79415",
            "lat": 33.58746648,
            "lng": -101.88999,
            "languages": [],
            "name": "CHCL Medical Plaza",
            "center_type": "Service Delivery Site"
        },
        {
            "address": "1610 5th St, Lubbock, TX 79401",
            "lat": 33.59132945,
            "lng": -101.8537425,
            "languages": [],
            "name": "Community Health Center of Lubbock - Dental Mobile Unit",
            "center_type": "Service Delivery Site"
        },
        {
            "address": "2424 50th St Rm 300, Lubbock, TX 79412",
            "lat": 33.5488466,
            "lng": -101.8693863,
            "languages": [],
            "name": "Combest Central Community Health Center",
            "center_type": "Service Delivery Site"
        },
        {
            "address": "2401 Fulton Ave Apt B, Lubbock, TX 79407",
            "lat": 33.57249001,
            "lng": -101.9412321,
            "languages": [],
            "name": "CHCL 96 West",
            "center_type": "Service Delivery Site"
        },
        {
            "address": "1610 5th St, Lubbock, TX 79401",
            "lat": 33.59132945,
            "lng": -101.8537425,
            "languages": [],
            "name": "CHCL 1610",
            "center_type": "Administrative/Service Delivery Site"
        },
        {
            "address": "1000 Fm 300, Levelland, TX 79336",
            "lat": 33.57207383,
            "lng": -102.3798986,
            "languages": [],
            "name": "SOUTH PLAINS RURAL HEALTH SERVICES, INC.",
            "center_type": "Administrative/Service Delivery Site"
        },
        {
            "address": "1300 S Gregg St, Big Spring, TX 79720",
            "lat": 32.24161253,
            "lng": -101.474084,
            "languages": [],
            "name": "Howard County Community Health Center",
            "center_type": "Service Delivery Site"
        },
        {
            "address": "217 Edwards, Merkel, TX 79536",
            "lat": 32.47224374,
            "lng": -100.0111539,
            "languages": [],
            "name": "ResourceCare Merkel",
            "center_type": "Service Delivery Site"
        },
        {
            "address": "1749 Pine St, Abilene, TX 79601",
            "lat": 32.46923674,
            "lng": -99.73108842,
            "languages": [],
            "name": "Abilene Community Health Center",
            "center_type": "Service Delivery Site"
        },
        {
            "address": "725 Pate St, Albany, TX 76430",
            "lat": 32.73176725,
            "lng": -99.28848983,
            "languages": [],
            "name": "SHACKELFORD COUNTY COMMUNITY RESOURCE CENTER",
            "center_type": "Service Delivery Site"
        },
        {
            "address": "123 Ascot Ave Bldg B, San Antonio, TX 78224",
            "lat": 29.35776574,
            "lng": -98.52835356,
            "languages": [],
            "name": "CENTROMED ASCOT",
            "center_type": "Administrative"
        },
        {
            "address": "8210 Callaghan Rd, San Antonio, TX 78230",
            "lat": 29.51403135,
            "lng": -98.54960963,
            "languages": [],
            "name": "CommuniCare Health Centers - Northwest",
            "center_type": "Service Delivery Site"
        },
        {
            "address": "1316 Lakeview St, Lufkin, TX 75904",
            "lat": 31.35441583,
            "lng": -94.73042979,
            "languages": [],
            "name": "ETCHS Lufkin 2.0",
            "center_type": "Service Delivery Site"
        },
        {
            "address": "402 N 7th St, Longview, TX 75601",
            "lat": 32.49617079,
            "lng": -94.72798392,
            "languages": [],
            "name": "402 N. 7th St",
            "center_type": "Administrative/Service Delivery Site"
        },
        {
            "address": "1107 E Marshall Ave, Longview, TX 75601",
            "lat": 32.50325731,
            "lng": -94.72426512,
            "languages": [],
            "name": "Wellness Pointe - Longview Buliding 1",
            "center_type": "Service Delivery Site"
        },
        {
            "address": "1711 S Henderson Blvd Ste 400, Kilgore, TX 75662",
            "lat": 32.37335995,
            "lng": -94.86925405,
            "languages": [],
            "name": "Wellness Pointe - Kilgore",
            "center_type": "Service Delivery Site"
        },
        {
            "address": "410 N 4th St, Longview, TX 75601",
            "lat": 32.49692974,
            "lng": -94.73139891,
            "languages": [],
            "name": "Jim Meyers Comprehensive Health Center",
            "center_type": "Administrative/Service Delivery Site"
        },
        {
            "address": "805 Medical Dr Ste A, Longview, TX 75605",
            "lat": 32.5347595,
            "lng": -94.72999444,
            "languages": [],
            "name": "Wellness Pointe - Longview North",
            "center_type": "Service Delivery Site"
        },
        {
            "address": "1107 E Marshall Ave Apt C, Longview, TX 75601",
            "lat": 32.50325731,
            "lng": -94.72426512,
            "languages": [],
            "name": "Wellness Pointe - Longview Buliding 2",
            "center_type": "Service Delivery Site"
        },
        {
            "address": "703 E Marshall Ave, Longview, TX 75601",
            "lat": 32.50155015,
            "lng": -94.73140977,
            "languages": [],
            "name": "Med Plaza",
            "center_type": "Service Delivery Site"
        },
        {
            "address": "1107 E Marshall Ave, Longview, TX 75601",
            "lat": 32.50325731,
            "lng": -94.72426512,
            "languages": [],
            "name": "Wellness Pointe - Longview Buliding 3",
            "center_type": "Service Delivery Site"
        },
        {
            "address": "2430 S High St, Longview, TX 75602",
            "lat": 32.46202687,
            "lng": -94.73309125,
            "languages": [],
            "name": "Wellness Pointe - Longview - South",
            "center_type": "Service Delivery Site"
        },
        {
            "address": "315 N Center St, Longview, TX 75601",
            "lat": 32.49724944,
            "lng": -94.73936257,
            "languages": [],
            "name": "Wellness Pointe - Administration / Business Services / Social Services",
            "center_type": "Administrative/Service Delivery Site"
        },
        {
            "address": "2131 S Mobberly Ave, Longview, TX 75602",
            "lat": 32.4668378,
            "lng": -94.7306741,
            "languages": [],
            "name": "Genesis PrimeCare (Primary Family Care Clinic)",
            "center_type": "Service Delivery Site"
        },
        {
            "address": "1500 W Grand Ave, Marshall, TX 75670",
            "lat": 32.54835148,
            "lng": -94.38097049,
            "languages": [],
            "name": "East Texas Border Health Clinic dba Genesis PrimeCare-Adm.",
            "center_type": "Administrative"
        },
        {
            "address": "618 S Grove St # 100-300, Marshall, TX 75670",
            "lat": 32.53990374,
            "lng": -94.37172096,
            "languages": [],
            "name": "East Texas Border Health Clinic dba Genesis PrimeCare-East Texs Pediatrics",
            "center_type": "Service Delivery Site"
        },
        {
            "address": "805 Lindsey Dr, Marshall, TX 75670",
            "lat": 32.53667167,
            "lng": -94.36987454,
            "languages": [],
            "name": "East Texas Border Health Clinic-Genesis PrimeCare Marshall",
            "center_type": "Service Delivery Site"
        },
        {
            "address": "620 S Grove St Ste 105, Marshall, TX 75670",
            "lat": 32.53841514,
            "lng": -94.37174888,
            "languages": [],
            "name": "Genesis Primecare-First Pediatrics",
            "center_type": "Service Delivery Site"
        },
        {
            "address": "707 S Grove St, Marshall, TX 75670",
            "lat": 32.53744072,
            "lng": -94.37178474,
            "languages": [],
            "name": "East Texas Border Health Clinic dba Genesis PrimeCare-Marshall Pediatric",
            "center_type": "Service Delivery Site"
        },
        {
            "address": "1210 Douglass Rd, Nacogdoches, TX 75964",
            "lat": 31.60660916,
            "lng": -94.66797361,
            "languages": [],
            "name": "WESTSIDE COMMUNITY CLINIC",
            "center_type": "Service Delivery Site"
        },
        {
            "address": "1309 S University Dr, Nacogdoches, TX 75961",
            "lat": 31.58893935,
            "lng": -94.64715854,
            "languages": [],
            "name": "EASTSIDE COMMUNITY CLINIC",
            "center_type": "Service Delivery Site"
        },
        {
            "address": "1401 S University Dr, Nacogdoches, TX 75961",
            "lat": 31.58833557,
            "lng": -94.64721986,
            "languages": [],
            "name": "EAST TEXAS COMMUNITY HEALTH SERVICES",
            "center_type": "Administrative/Service Delivery Site"
        },
        {
            "address": "1200 US Highway 259 S, Henderson, TX 75654",
            "lat": 32.14259146,
            "lng": -94.78955699,
            "languages": [],
            "name": "Rusk County Community Health Center",
            "center_type": "Service Delivery Site"
        },
        {
            "address": "106 W Rusk St, Mount Enterprise, TX 75681",
            "lat": 31.91784925,
            "lng": -94.68211695,
            "languages": [],
            "name": "Mt. Enterprise Community Health Clinic",
            "center_type": "Service Delivery Site"
        },
        {
            "address": "164 Wall St, Tenaha, TX 75974",
            "lat": 31.94435726,
            "lng": -94.24464745,
            "languages": [],
            "name": "HOPE Dental Center",
            "center_type": "Service Delivery Site"
        },
        {
            "address": "157 Wall St, Tenaha, TX 75974",
            "lat": 31.94434977,
            "lng": -94.24477459,
            "languages": [],
            "name": "The Hope Project, Inc.",
            "center_type": "Service Delivery Site"
        },
        {
            "address": "325 Tenaha St, Center, TX 75935",
            "lat": 31.80000539,
            "lng": -94.18507154,
            "languages": [],
            "name": "HOPE Administration",
            "center_type": "Administrative/Service Delivery Site"
        },
        {
            "address": "620 Tenaha St, Center, TX 75935",
            "lat": 31.80454925,
            "lng": -94.18738735,
            "languages": [],
            "name": "HOPE Community Medicine- Center Location",
            "center_type": "Service Delivery Site"
        },
        {
            "address": "928 N Glenwood Blvd Ste 200, Tyler, TX 75702",
            "lat": 32.35988525,
            "lng": -95.31918062,
            "languages": [],
            "name": "FAMILY Circle of Care Glenwood Clinic",
            "center_type": "Service Delivery Site"
        },
        {
            "address": "214 E Houston St, Tyler, TX 75702",
            "lat": 32.3437425,
            "lng": -95.29883083,
            "languages": [],
            "name": "Tyler Family Circle of Care - Womens Services",
            "center_type": "Administrative"
        },
        {
            "address": "214 E Houston St, Tyler, TX 75702",
            "lat": 32.3437425,
            "lng": -95.29883083,
            "languages": [],
            "name": "FAMILY Circle of Care Houston Clinic",
            "center_type": "Service Delivery Site"
        },
        {
            "address": "523 S Fannin Ave, Tyler, TX 75702",
            "lat": 32.344065,
            "lng": -95.29853601,
            "languages": [],
            "name": "FAMILY Circle of Care Administration Annex",
            "center_type": "Administrative/Service Delivery Site"
        },
        {
            "address": "1300 Clinic Dr, Tyler, TX 75701",
            "lat": 32.33869251,
            "lng": -95.28628305,
            "languages": [],
            "name": "Tyler Clinic",
            "center_type": "Service Delivery Site"
        },
        {
            "address": "2990 N Broadway Ave, Tyler, TX 75702",
            "lat": 32.37881394,
            "lng": -95.3020345,
            "languages": [],
            "name": "FAMILY Circle of Care Broadway Clinic",
            "center_type": "Service Delivery Site"
        },
        {
            "address": "BLDG 35, San Antonio, TX 78227",
            "lat": 29.400198,
            "lng": -98.63641249,
            "languages": [],
            "name": "CENTROMED WOMEN'S SHELTER CLINIC - LA PALOMA DE PAZ",
            "center_type": "Service Delivery Site"
        },
        {
            "address": "918 Wagner Ave, San Antonio, TX 78211",
            "lat": 29.36478248,
            "lng": -98.53497016,
            "languages": [],
            "name": "CENTROMED SOUTH PARK PHARMACY",
            "center_type": "Administrative"
        },
        {
            "address": "5750 Medina Base Rd, San Antonio, TX 78242",
            "lat": 29.36519175,
            "lng": -98.6103175,
            "languages": [],
            "name": "CENTROMED MEDINA BASE CLINIC",
            "center_type": "Service Delivery Site"
        },
        {
            "address": "1102 Barclay St, San Antonio, TX 78207",
            "lat": 29.40966271,
            "lng": -98.54303034,
            "languages": [],
            "name": "CommuniCare Health Centers- West Campus (Barrio Family Health Center)",
            "center_type": "Administrative/Service Delivery Site"
        },
        {
            "address": "123 Ascot Ave Bldg A, San Antonio, TX 78224",
            "lat": 29.35776574,
            "lng": -98.52835356,
            "languages": [],
            "name": "CENTROMED CENTRAL BILLING OFFICE",
            "center_type": "Administrative"
        },
        {
            "address": "6315 S Zarzamora St, San Antonio, TX 78211",
            "lat": 29.36549795,
            "lng": -98.53408301,
            "languages": [],
            "name": "CENTROMED SOUTH PARK MEDICAL CLINIC",
            "center_type": "Service Delivery Site"
        },
        {
            "address": "7420 Blanco Rd Ste 210, San Antonio, TX 78216",
            "lat": 29.52822593,
            "lng": -98.50538272,
            "languages": [],
            "name": "CommuniCare Health Centers - Navigation Center",
            "center_type": "Administrative"
        },
        {
            "address": "10002 Westover Blf, San Antonio, TX 78251",
            "lat": 29.43639751,
            "lng": -98.68886264,
            "languages": [],
            "name": "CommuniCare Health Centers - Potranco Pediatrics",
            "center_type": "Service Delivery Site"
        },
        {
            "address": "910 Wagner Ave, San Antonio, TX 78211",
            "lat": 29.36477047,
            "lng": -98.53450216,
            "languages": [],
            "name": "CENTROMED SOUTH PARK DENTAL CLINIC",
            "center_type": "Service Delivery Site"
        },
        {
            "address": "14811 San Pedro Ave, San Antonio, TX 78232",
            "lat": 29.57663605,
            "lng": -98.47861115,
            "languages": [],
            "name": "CommuniCare Health Centers - Hill Country Village",
            "center_type": "Service Delivery Site"
        },
        {
            "address": "500 E 7th St, Austin, TX 78701",
            "lat": 30.26767977,
            "lng": -97.73768325,
            "languages": [],
            "name": "CommUnityCare Austin Resource Center for the Homeless",
            "center_type": "Service Delivery Site"
        },
        {
            "address": "1221 W Ben White Blvd Bldg B # B200, Austin, TX 78704",
            "lat": 30.22737251,
            "lng": -97.77890164,
            "languages": [],
            "name": "Ben White Health Clinic",
            "center_type": "Service Delivery Site"
        },
        {
            "address": "2529 S 1st St, Austin, TX 78704",
            "lat": 30.23980392,
            "lng": -97.76106713,
            "languages": [],
            "name": "CommUnityCare South Austin",
            "center_type": "Service Delivery Site"
        },
        {
            "address": "8656A W Highway 71 Ste C, Austin, TX 78735",
            "lat": 30.2494958,
            "lng": -97.89333923,
            "languages": [],
            "name": "CommUnityCare Oak Hill",
            "center_type": "Service Delivery Site"
        },
        {
            "address": "1221 W Ben White Blvd Bldg B # B100, Austin, TX 78704",
            "lat": 30.22737251,
            "lng": -97.77890164,
            "languages": [],
            "name": "Ben White Health Clinic",
            "center_type": "Service Delivery Site"
        },
        {
            "address": "1221 W Ben White Blvd, Austin, TX 78704",
            "lat": 30.22737251,
            "lng": -97.77890164,
            "languages": [],
            "name": "CommUnityCare Ben White Dental",
            "center_type": "Service Delivery Site"
        },
        {
            "address": "430 W Bandera Rd Ste 9, Boerne, TX 78006",
            "lat": 29.78053748,
            "lng": -98.73571346,
            "languages": [],
            "name": "CommuniCare Health Centers - Boerne",
            "center_type": "Service Delivery Site"
        },
        {
            "address": "US-83 & Oak Hill Dr, Leakey, TX 78873",
            "lat": 29.718432,
            "lng": -99.76331249,
            "languages": [],
            "name": "ROLLING HILLS HEALTH",
            "center_type": "Service Delivery Site"
        },
        {
            "address": "700 Frio St, Camp Wood, TX 78833",
            "lat": 29.66466801,
            "lng": -100.0096239,
            "languages": [],
            "name": "CANYON HEALTH CENTER",
            "center_type": "Service Delivery Site"
        },
        {
            "address": "1221 W Ben White Blvd Bldg B # B300, Austin, TX 78704",
            "lat": 30.22737251,
            "lng": -97.77890164,
            "languages": [],
            "name": "Ben White Health Clinic",
            "center_type": "Service Delivery Site"
        },
        {
            "address": "218 E House St, Alvin, TX 77511",
            "lat": 29.41862548,
            "lng": -95.24212319,
            "languages": [],
            "name": "Women and Children&#39;s Health Center",
            "center_type": "Service Delivery Site"
        },
        {
            "address": "101 Brennen Ln, Alvin, TX 77511",
            "lat": 29.41149151,
            "lng": -95.24334175,
            "languages": [],
            "name": "SFACHN Integrated Health Care Clinic Gulf Coast MHMR",
            "center_type": "Service Delivery Site"
        },
        {
            "address": "1111 W Adoue St, Alvin, TX 77511",
            "lat": 29.42005747,
            "lng": -95.25514105,
            "languages": [],
            "name": "Adoue Family Health Center",
            "center_type": "Service Delivery Site"
        },
        {
            "address": "1506 Broadway St Ste 100, Pearland, TX 77581",
            "lat": 29.54618959,
            "lng": -95.22948369,
            "languages": [],
            "name": "Pearland Community Health Center",
            "center_type": "Service Delivery Site"
        },
        {
            "address": "1612 Callaway Dr, Alvin, TX 77511",
            "lat": 29.40985139,
            "lng": -95.26540368,
            "languages": [],
            "name": "Stephen F. Austin Administration",
            "center_type": "Administrative/Service Delivery Site"
        },
        {
            "address": "400 Austin St, Richmond, TX 77469",
            "lat": 29.57831421,
            "lng": -95.76011292,
            "languages": [],
            "name": "Richmond Center",
            "center_type": "Administrative/Service Delivery Site"
        },
        {
            "address": "400 Austin St, Richmond, TX 77469",
            "lat": 29.57831421,
            "lng": -95.76011292,
            "languages": [],
            "name": "Mobile Clinic",
            "center_type": "Service Delivery Site"
        },
        {
            "address": "13020 Dairy Ashford Rd, Sugar Land, TX 77478",
            "lat": 29.62813295,
            "lng": -95.60209725,
            "languages": [],
            "name": "St. Hope Community Health Center Clinic",
            "center_type": "Service Delivery Site"
        },
        {
            "address": "150 Medical Dr, Pearsall, TX 78061",
            "lat": 28.89758506,
            "lng": -99.11785445,
            "languages": [],
            "name": "PEARSALL CLINIC",
            "center_type": "Service Delivery Site"
        },
        {
            "address": "606 W Leona St, Dilley, TX 78017",
            "lat": 28.66901096,
            "lng": -99.1772712,
            "languages": [],
            "name": "DILLEY CLINIC",
            "center_type": "Service Delivery Site"
        },
        {
            "address": "901 Ascencion St, El Paso, TX 79928",
            "lat": 31.65370175,
            "lng": -106.1472221,
            "languages": [],
            "name": "La Clinica Guadalupana",
            "center_type": "Service Delivery Site"
        },
        {
            "address": "PO BOX 1517, San Elizario, TX 79849",
            "lat": 31.585281,
            "lng": -106.2672245,
            "languages": [],
            "name": "CENTRO SAN VICENTE SAN ELIZARIO",
            "center_type": "Service Delivery Site"
        },
        {
            "address": "1100 Colina De Paz, El Paso, TX 79928",
            "lat": 31.64560568,
            "lng": -106.2258464,
            "languages": [],
            "name": "Desert Wind School",
            "center_type": "Service Delivery Site"
        },
        {
            "address": "1605 W Fort Davis Ave, Alpine, TX 79830",
            "lat": 30.36341663,
            "lng": -103.6831918,
            "languages": [],
            "name": "Alpine Clinic",
            "center_type": "Service Delivery Site"
        },
        {
            "address": "7315 S Loop 1604 W, Somerset, TX 78069",
            "lat": 29.22852821,
            "lng": -98.64575057,
            "languages": [],
            "name": "CENTROMED MARIA CASTRO FLORES CLINIC",
            "center_type": "Service Delivery Site"
        },
        {
            "address": "3619 Paesanos Pkwy, San Antonio, TX 78231",
            "lat": 29.60004806,
            "lng": -98.55407479,
            "languages": [],
            "name": "CommuniCare Health Centers - Shavano Park",
            "center_type": "Service Delivery Site"
        },
        {
            "address": "3750 Commercial Ave, San Antonio, TX 78221",
            "lat": 29.335905,
            "lng": -98.51619847,
            "languages": [],
            "name": "CENTROMED SOUTHSIDE MEDICAL CLINIC",
            "center_type": "Administrative/Service Delivery Site"
        },
        {
            "address": "9011 Poteet Jourdanton Fwy, San Antonio, TX 78224",
            "lat": 29.3338988,
            "lng": -98.55112451,
            "languages": [],
            "name": "CENTROMED PALO ALTO CLINIC",
            "center_type": "Service Delivery Site"
        },
        {
            "address": "1313 San Antonio Rd, San Elizario, TX 79849",
            "lat": 31.5874424,
            "lng": -106.2697836,
            "languages": [],
            "name": "SAN ELIZARIO SATELLITE CLINIC",
            "center_type": "Service Delivery Site"
        },
        {
            "address": "12101 Socorro Rd, San Elizario, TX 79849",
            "lat": 31.59661191,
            "lng": -106.2736709,
            "languages": [],
            "name": "San Elizario Satellite Clinic",
            "center_type": "Service Delivery Site"
        },
        {
            "address": "1502 Grand Ave, Big Wells, TX 78830",
            "lat": 28.57326988,
            "lng": -99.56980323,
            "languages": [],
            "name": "BIG WELLS CLINIC",
            "center_type": "Service Delivery Site"
        },
        {
            "address": "902 S 5th St, Carrizo Springs, TX 78834",
            "lat": 28.51478654,
            "lng": -99.86615062,
            "languages": [],
            "name": "CARRIZO SPRINGS CLINIC",
            "center_type": "Service Delivery Site"
        },
        {
            "address": "301 N Water St, Fort Stockton, TX 79735",
            "lat": 30.88733859,
            "lng": -102.8781203,
            "languages": [],
            "name": "Cactus Health Services, Inc. Fort Stockton",
            "center_type": "Service Delivery Site"
        },
        {
            "address": "1501 N Erma Ave, Presidio, TX 79845",
            "lat": 29.56502507,
            "lng": -104.3716928,
            "languages": [],
            "name": "Presidio County Medical Clinic",
            "center_type": "Service Delivery Site"
        },
        {
            "address": "S Summer St, Marfa, TX 79843",
            "lat": 30.30645089,
            "lng": -104.0255948,
            "languages": [],
            "name": "Marfa Community Health Clinic.",
            "center_type": "Service Delivery Site"
        },
        {
            "address": "106 W Texas St, Marfa, TX 79843",
            "lat": 30.31208777,
            "lng": -104.0217157,
            "languages": [],
            "name": "Administration building",
            "center_type": "Administrative"
        },
        {
            "address": "1021 El Indio Hwy, Eagle Pass, TX 78852",
            "lat": 28.70274198,
            "lng": -100.4979465,
            "languages": [],
            "name": "El Indio Hwy Clinic",
            "center_type": "Service Delivery Site"
        },
        {
            "address": "1175 Eidson Rd, Eagle Pass, TX 78852",
            "lat": 28.69342449,
            "lng": -100.4870809,
            "languages": [],
            "name": "EIDSON ROAD CLINIC",
            "center_type": "Service Delivery Site"
        },
        {
            "address": "2525 N Veterans Blvd, Eagle Pass, TX 78852",
            "lat": 28.73063522,
            "lng": -100.4782545,
            "languages": [],
            "name": "UNITED MEDICAL CENTERS, INC.",
            "center_type": "Service Delivery Site"
        },