{
    "dataSources": "Vericred Network Data, Robert Wood Johnson Foundation",
    "description": "2017 Ambetter PCPs, Individual Market",
    "state": "wa",
    "name": "Washington Dataset",
    "providers": [
        {
            "address": "8980 161st Ave NE Ste 400, REDMOND, WA 98052",
            "lat": 47.682073,
            "lng": -122.12548,
            "languages": [],
            "npi": "1609054121",
            "name": "LIQUN ZHU",
            "specialty": "FAMILY MEDICINE"
        },
        {
            "address": "10830 SE Kent Kangley Rd # 100A, KENT, WA 98030",
            "lat": 47.37075,
            "lng": -122.19622,
            "languages": [],
            "npi": "1194779629",
            "name": "HARPREET CHHOKAR",
            "specialty": "FAMILY MEDICINE"
        },
        {
            "address": "915 Sheridan St Ste B103, PORT TOWNSEND, WA 98368",
            "lat": 48.10696,
            "lng": -122.79069,
            "languages": [],
            "npi": "1154373553",
            "name": "DAVID HARRIS",
            "specialty": "FAMILY MEDICINE"
        },
        {
            "address": "1111 S 2nd Ave, WALLA WALLA, WA 99362",
            "lat": 46.053945,
            "lng": -118.33112,
            "languages": [],
            "npi": "1982609533",
            "name": "DAVID WOOLEVER",
            "specialty": "INTERNIST"
        },
        {
            "address": "9605 Sandifur Pkwy, PASCO, WA 99301",
            "lat": 46.27856,
            "lng": -119.21576,
            "languages": [],
            "npi": "1780899799",
            "name": "JOHN HORNELL",
            "specialty": "FAMILY MEDICINE"
        },
        {
            "address": "602 E Nob Hill Blvd, YAKIMA, WA 98901",
            "lat": 46.58412,
            "lng": -120.49397,
            "languages": [],
            "npi": "1174605885",
            "name": "LESLEY MCGALLIARD",
            "specialty": "FAMILY MEDICINE"
        },
        {
            "address": "17 S Western Ave, TONASKET, WA 98855",
            "lat": 48.707509,
            "lng": -119.43884,
            "languages": [],
            "npi": "1104841170",
            "name": "JAMES HELLESON",
            "specialty": "FAMILY MEDICINE"
        },
        {
            "address": "400 E 5Th Ave Ste 3 North, SPOKANE, WA 99202",
            "lat": 47.650843,
            "lng": -117.40524,
            "languages": [],
            "npi": "1417022799",
            "name": "SARAH KING",
            "specialty": "INTERNIST"
        },
        {
            "address": "7410 Delaware Ln, VANCOUVER, WA 98664",
            "lat": 45.624487,
            "lng": -122.59469,
            "languages": [],
            "npi": "1174676423",
            "name": "SHANE DUNAWAY",
            "specialty": "FAMILY MEDICINE"
        },
        {
            "address": "720 8th Ave S Ste 100, SEATTLE, WA 98104",
            "lat": 47.5965,
            "lng": -122.32233,
            "languages": [],
            "npi": "1336242734",
            "name": "KIMO HIRAYAMA",
            "specialty": "FAMILY MEDICINE"
        },
        {
            "address": "1010 S Scheuber Rd Ste 3, CENTRALIA, WA 98531",
            "lat": 46.712036,
            "lng": -122.98684,
            "languages": [],
            "npi": "1265467930",
            "name": "JONG-WOOK BAN",
            "specialty": "INTERNIST"
        },
        {
            "address": "19200 N Kelsey St, MONROE, WA 98272",
            "lat": 47.859588,
            "lng": -121.97454,
            "languages": [],
            "npi": "1629280326",
            "name": "HILLARY STARR",
            "specialty": "FAMILY MEDICINE"
        },
        {
            "address": "3124 S 19th St Ste C200, TACOMA, WA 98405",
            "lat": 47.242675,
            "lng": -122.47711,
            "languages": [],
            "npi": "1497074314",
            "name": "EDDIE ESPANOL",
            "specialty": "FAMILY MEDICINE"
        },
        {
            "address": "525 Lilly Rd NE Ste 250, OLYMPIA, WA 98506",
            "lat": 47.053285,
            "lng": -122.84451,
            "languages": [],
            "npi": "1386645281",
            "name": "KEVIN HAUGHTON",
            "specialty": "FAMILY MEDICINE"
        },
        {
            "address": "910 W 5th Ave Ste 600, SPOKANE, WA 99204",
            "lat": 47.65207,
            "lng": -117.42586,
            "languages": [],
            "npi": "1407926256",
            "name": "JULIE RIETZE",
            "specialty": "FAMILY MEDICINE"
        },
        {
            "address": "510 W 1st Ave, TOPPENISH, WA 98948",
            "lat": 46.374977,
            "lng": -120.31581,
            "languages": [],
            "npi": "1619105400",
            "name": "ERICA MOYER",
            "specialty": "FAMILY MEDICINE"
        },
        {
            "address": "3010 S Southeast Blvd Ste A, SPOKANE, WA 99223",
            "lat": 47.62655,
            "lng": -117.37585,
            "languages": [],
            "npi": "1295756930",
            "name": "DAVID SHIPOWICK",
            "specialty": "FAMILY MEDICINE"
        },
        {
            "address": "751 NE Blakely Dr Ste 5010, ISSAQUAH, WA 98029",
            "lat": 47.53581,
            "lng": -122.02207,
            "languages": [],
            "npi": "1750440954",
            "name": "JO WALKER",
            "specialty": "INTERNIST"
        },
        {
            "address": "2101 E Yesler Way, SEATTLE, WA 98122",
            "lat": 47.601673,
            "lng": -122.30455,
            "languages": [],
            "npi": "1730268301",
            "name": "ABIGAIL GROSS",
            "specialty": "FAMILY MEDICINE"
        },
        {
            "address": "104 W 5th Ave Ste 200W, SPOKANE, WA 99204",
            "lat": 47.651758,
            "lng": -117.41415,
            "languages": [],
            "npi": "1447235650",
            "name": "JUDY SWANSON",
            "specialty": "INTERNIST"
        },
        {
            "address": "7101 Martin Luther King Jr Way, SEATTLE, WA 98118",
            "lat": 47.53846,
            "lng": -122.28305,
            "languages": [],
            "npi": "1508927716",
            "name": "SON NGUYEN",
            "specialty": "INTERNIST"
        },
        {
            "address": "550 16th Ave Ste 100, SEATTLE, WA 98122",
            "lat": 47.60693,
            "lng": -122.31115,
            "languages": [],
            "npi": "1134203854",
            "name": "TANMEET SETHI",
            "specialty": "FAMILY MEDICINE"
        },
        {
            "address": "200 S 2nd St, RENTON, WA 98057",
            "lat": 47.4816,
            "lng": -122.21488,
            "languages": [],
            "npi": "1215977202",
            "name": "NIRAV PATEL",
            "specialty": "FAMILY MEDICINE"
        },
        {
            "address": "37624 SE Fury St Ste 101, SNOQUALMIE, WA 98065",
            "lat": 47.533803,
            "lng": -121.83906,
            "languages": [],
            "npi": "1194987891",
            "name": "CRAIG SCHIER",
            "specialty": "FAMILY MEDICINE"
        },
        {
            "address": "525 Lilly Rd NE, OLYMPIA, WA 98506",
            "lat": 47.053285,
            "lng": -122.84451,
            "languages": [],
            "npi": "1194977272",
            "name": "KARI LIMA",
            "specialty": "FAMILY MEDICINE"
        },
        {
            "address": "9001 N Country Homes Blvd, SPOKANE, WA 99218",
            "lat": 47.739679,
            "lng": -117.41614,
            "languages": [],
            "npi": "1780680173",
            "name": "DANIEL STOOP",
            "specialty": "FAMILY MEDICINE"
        },
        {
            "address": "101 W 8th Ave, SPOKANE, WA 99204",
            "lat": 47.648884,
            "lng": -117.41267,
            "languages": [],
            "npi": "1184736407",
            "name": "BARDOMIANO SANCHEZ JR",
            "specialty": "INTERNIST"
        },
        {
            "address": "10209 136th St E, PUYALLUP, WA 98374",
            "lat": 47.133079,
            "lng": -122.29295,
            "languages": [],
            "npi": "1578596847",
            "name": "JAMES ROSCETTI",
            "specialty": "GENERAL PRACTITIONER"
        },
        {
            "address": "1909 214th St SE Ste 110, BOTHELL, WA 98021",
            "lat": 47.80438,
            "lng": -122.20678,
            "languages": [],
            "npi": "1508953043",
            "name": "NONNA MORGENROTH",
            "specialty": "FAMILY MEDICINE"
        },
        {
            "address": "30809 1st Ave S, FEDERAL WAY, WA 98003",
            "lat": 47.325512,
            "lng": -122.33562,
            "languages": [],
            "npi": "1538198221",
            "name": "THANH PHAM",
            "specialty": "INTERNIST"
        },
        {
            "address": "1600 E Jefferson St Ste 510, SEATTLE, WA 98122",
            "lat": 47.606504,
            "lng": -122.31102,
            "languages": [],
            "npi": "1609189117",
            "name": "ALYSSA BARTO",
            "specialty": "FAMILY MEDICINE"
        },
        {
            "address": "18623 Highway 99 Ste 230, LYNNWOOD, WA 98037",
            "lat": 47.829992,
            "lng": -122.30611,
            "languages": [],
            "npi": "1073578704",
            "name": "CASEY KIM",
            "specialty": "FAMILY MEDICINE"
        },
        {
            "address": "3815 S Othello St Fl 2, SEATTLE, WA 98118",
            "lat": 47.53685,
            "lng": -122.28405,
            "languages": [],
            "npi": "1619086386",
            "name": "GRACE WANG",
            "specialty": "FAMILY MEDICINE"
        },
        {
            "address": "620 SE Everett Mall Way Ste 220, EVERETT, WA 98208",
            "lat": 47.90814,
            "lng": -122.22436,
            "languages": [],
            "npi": "1295736981",
            "name": "IRINA MILMAN",
            "specialty": "INTERNIST"
        },
        {
            "address": "840 E Hill Ave, MOSES LAKE, WA 98837",
            "lat": 47.12186,
            "lng": -119.26557,
            "languages": [],
            "npi": "1417973751",
            "name": "DENNIS KEARNS",
            "specialty": "FAMILY MEDICINE"
        },
        {
            "address": "605 E Holland Ave Ste 200, SPOKANE, WA 99218",
            "lat": 47.744923,
            "lng": -117.39973,
            "languages": [],
            "npi": "1760420863",
            "name": "VIRGINIA REYTA",
            "specialty": "FAMILY MEDICINE"
        },
        {
            "address": "820 S McClellan St Ste 200, SPOKANE, WA 99204",
            "lat": 47.64772,
            "lng": -117.41511,
            "languages": [],
            "npi": "1740246362",
            "name": "MARK JOHNSON",
            "specialty": "INTERNIST"
        },
        {
            "address": "10414 Beardslee Blvd, BOTHELL, WA 98011",
            "lat": 47.757053,
            "lng": -122.19736,
            "languages": [],
            "npi": "1457359507",
            "name": "SAM EGGERTSEN",
            "specialty": "FAMILY MEDICINE"
        },
        {
            "address": "101 W 8th Ave, SPOKANE, WA 99204",
            "lat": 47.648884,
            "lng": -117.41267,
            "languages": [],
            "npi": "1184888554",
            "name": "ALFRED CURNOW",
            "specialty": "INTERNIST"
        },
        {
            "address": "521 2nd Pl N Ste 103, KENT, WA 98032",
            "lat": 47.38342,
            "lng": -122.23349,
            "languages": [],
            "npi": "1487765442",
            "name": "LESTER PITTLE",
            "specialty": "INTERNIST"
        },
        {
            "address": "3236 78th Ave SE Ste 200, MERCER ISLAND, WA 98040",
            "lat": 47.580745,
            "lng": -122.23324,
            "languages": [],
            "npi": "1891781746",
            "name": "ERIC GIL",
            "specialty": "INTERNIST"
        },
        {
            "address": "1801 NW Market St Ste 403, SEATTLE, WA 98107",
            "lat": 47.668463,
            "lng": -122.38031,
            "languages": [],
            "npi": "1528122751",
            "name": "MARK JOHNSON",
            "specialty": "FAMILY MEDICINE"
        },
        {
            "address": "615 Sheridan St, PORT TOWNSEND, WA 98368",
            "lat": 48.104276,
            "lng": -122.79041,
            "languages": [],
            "npi": "1750342770",
            "name": "THOMAS LOCKE",
            "specialty": "GENERAL PRACTITIONER"
        },
        {
            "address": "12800 Bothell Everett Hwy # 180, EVERETT, WA 98208",
            "lat": 47.880917,
            "lng": -122.2109,
            "languages": [],
            "npi": "1790790582",
            "name": "STELLA TANEDO",
            "specialty": "INTERNIST"
        },
        {
            "address": "840 S Meyers St, KETTLE FALLS, WA 99141",
            "lat": 48.60499,
            "lng": -118.05635,
            "languages": [],
            "npi": "1326055831",
            "name": "APRIL HUME",
            "specialty": "FAMILY MEDICINE"
        },
        {
            "address": "751 NE Blakely Dr Ste 5010, ISSAQUAH, WA 98029",
            "lat": 47.53581,
            "lng": -122.02207,
            "languages": [],
            "npi": "1124073572",
            "name": "LANE ERTUGAY",
            "specialty": "FAMILY MEDICINE"
        },
        {
            "address": "3801 150th Ave SE, BELLEVUE, WA 98006",
            "lat": 47.626374,
            "lng": -122.13312,
            "languages": [],
            "npi": "1275884405",
            "name": "ANNAPOORNA MURTHY",
            "specialty": "FAMILY MEDICINE"
        },
        {
            "address": "12800 Bothell Everett Hwy # 160, EVERETT, WA 98208",
            "lat": 47.880917,
            "lng": -122.2109,
            "languages": [],
            "npi": "1306920772",
            "name": "KENNETH KOOSER",
            "specialty": "FAMILY MEDICINE"
        },
        {
            "address": "2101 E Yesler Way, SEATTLE, WA 98122",
            "lat": 47.601673,
            "lng": -122.30455,
            "languages": [],
            "npi": "1881794980",
            "name": "CARRIE RUBENSTEIN",
            "specialty": "FAMILY MEDICINE"
        },
        {
            "address": "1620 N Road 44, PASCO, WA 99301",
            "lat": 46.24315,
            "lng": -119.14895,
            "languages": [],
            "npi": "1093925794",
            "name": "TRAVIS NAJERA",
            "specialty": "FAMILY MEDICINE"
        },
        {
            "address": "101 W 8th Ave Ste 1400, SPOKANE, WA 99204",
            "lat": 47.648884,
            "lng": -117.41267,
            "languages": [],
            "npi": "1699864603",
            "name": "MARY GILBERT",
            "specialty": "FAMILY MEDICINE"
        },
        {
            "address": "415 N 85th St, SEATTLE, WA 98103",
            "lat": 47.690213,
            "lng": -122.35344,
            "languages": [],
            "npi": "1982915534",
            "name": "MATTHEW PEREZ",
            "specialty": "FAMILY MEDICINE"
        },
        {
            "address": "2214 E 29th Ave, SPOKANE, WA 99203",
            "lat": 47.628122,
            "lng": -117.37857,
            "languages": [],
            "npi": "1134111008",
            "name": "GARY KNOX",
            "specialty": "FAMILY MEDICINE"
        },
        {
            "address": "306 23rd Ave S Ste 200, SEATTLE, WA 98144",
            "lat": 47.5866,
            "lng": -122.3027,
            "languages": [],
            "npi": "1154492155",
            "name": "A CARROLL HAYMON",
            "specialty": "FAMILY MEDICINE"
        },
        {
            "address": "620 North Park Dr, SELAH, WA 98942",
            "lat": 46.646941,
            "lng": -120.53333,
            "languages": [],
            "npi": "1124049291",
            "name": "JAMES ZINGERMAN",
            "specialty": "FAMILY MEDICINE"
        },
        {
            "address": "9245 Rainier Ave S, SEATTLE, WA 98118",
            "lat": 47.519602,
            "lng": -122.26924,
            "languages": [],
            "npi": "1558471987",
            "name": "JEFFREY LEE",
            "specialty": "FAMILY MEDICINE"
        },
        {
            "address": "933 Red Apple Rd Ste B, WENATCHEE, WA 98801",
            "lat": 47.407862,
            "lng": -120.32314,
            "languages": [],
            "npi": "1649443276",
            "name": "JASON RAHME",
            "specialty": "INTERNIST"
        },
        {
            "address": "100 Highline Dr, EAST WENATCHEE, WA 98802",
            "lat": 47.404477,
            "lng": -120.28233,
            "languages": [],
            "npi": "1144256298",
            "name": "JOEL BANKEN",
            "specialty": "FAMILY MEDICINE"
        },
        {
            "address": "303 Cottage Ave, CASHMERE, WA 98815",
            "lat": 47.52174,
            "lng": -120.46494,
            "languages": [],
            "npi": "1427109974",
            "name": "KELLY GILLESPIE",
            "specialty": "FAMILY MEDICINE"
        },
        {
            "address": "418 W Main St, BREWSTER, WA 98812",
            "lat": 48.099605,
            "lng": -119.77936,
            "languages": [],
            "npi": "1295769446",
            "name": "ANNE DUBOSKY",
            "specialty": "FAMILY MEDICINE"
        },
        {
            "address": "820 S McClellan St Ste 200, SPOKANE, WA 99204",
            "lat": 47.64772,
            "lng": -117.41511,
            "languages": [],
            "npi": "1225093206",
            "name": "MICHAEL PARISOT",
            "specialty": "INTERNIST"
        },
        {
            "address": "9398 Ridgetop Blvd NW, SILVERDALE, WA 98383",
            "lat": 47.582163,
            "lng": -122.62645,
            "languages": [],
            "npi": "1235167180",
            "name": "INGELA THOMSEN",
            "specialty": "FAMILY MEDICINE"
        },
        {
            "address": "515 Minor Ave Ste 170, SEATTLE, WA 98104",
            "lat": 47.60631,
            "lng": -122.32177,
            "languages": [],
            "npi": "1083601561",
            "name": "MARGO KOBER",
            "specialty": "INTERNIST"
        },
        {
            "address": "840 E Hill Ave, MOSES LAKE, WA 98837",
            "lat": 47.12186,
            "lng": -119.26557,
            "languages": [],
            "npi": "1790915486",
            "name": "LUTHER THOMPSON",
            "specialty": "FAMILY MEDICINE"
        },
        {
            "address": "8980 161st Ave NE Ste 400, REDMOND, WA 98052",
            "lat": 47.682073,
            "lng": -122.12548,
            "languages": [],
            "npi": "1033191531",
            "name": "KRYSTYNA PILECKI",
            "specialty": "GENERAL PRACTITIONER"
        },
        {
            "address": "3425 Ensign Rd NE Ste 220, OLYMPIA, WA 98506",
            "lat": 47.050762,
            "lng": -122.84764,
            "languages": [],
            "npi": "1912069527",
            "name": "SARAH LUX",
            "specialty": "INTERNIST"
        },
        {
            "address": "104 W 5th Ave Ste 200W, SPOKANE, WA 99204",
            "lat": 47.651758,
            "lng": -117.41415,
            "languages": [],
            "npi": "1508179482",
            "name": "AMY EDDY",
            "specialty": "INTERNIST"
        },
        {
            "address": "1120 W Rose St, WALLA WALLA, WA 99362",
            "lat": 46.062022,
            "lng": -118.35585,
            "languages": [],
            "npi": "1265495972",
            "name": "MICHAEL TACHENY",
            "specialty": "FAMILY MEDICINE"
        },
        {
            "address": "611 N 39th Ave, YAKIMA, WA 98902",
            "lat": 46.608742,
            "lng": -120.56046,
            "languages": [],
            "npi": "1730199860",
            "name": "JOHN LYZANCHUK",
            "specialty": "FAMILY MEDICINE"
        },
        {
            "address": "14408 E Sprague Ave, SPOKANE VALLEY, WA 99216",
            "lat": 47.656409,
            "lng": -117.2108,
            "languages": [],
            "npi": "1740282565",
            "name": "JETTE BENEDETTO",
            "specialty": "FAMILY MEDICINE"
        },
        {
            "address": "8980 161st Ave NE Ste 400, REDMOND, WA 98052",
            "lat": 47.682073,
            "lng": -122.12548,
            "languages": [],
            "npi": "1467459487",
            "name": "KIMBERLY LIU",
            "specialty": "FAMILY MEDICINE"
        },
        {
            "address": "525 Lilly Rd NE, OLYMPIA, WA 98506",
            "lat": 47.053285,
            "lng": -122.84451,
            "languages": [],
            "npi": "1497756308",
            "name": "DEVIN SAWYER",
            "specialty": "FAMILY MEDICINE"
        },
        {
            "address": "101 W 8th Ave, SPOKANE, WA 99204",
            "lat": 47.648884,
            "lng": -117.41267,
            "languages": [],
            "npi": "1407831654",
            "name": "KAREN THYKESON",
            "specialty": "INTERNIST"
        },
        {
            "address": "1830 Bickford Ave Ste 211, SNOHOMISH, WA 98290",
            "lat": 47.93457,
            "lng": -122.10482,
            "languages": [],
            "npi": "1598708786",
            "name": "GINA CADENA-FORNEY",
            "specialty": "FAMILY MEDICINE"
        },
        {
            "address": "9800 4th Ave NE, SEATTLE, WA 98115",
            "lat": 47.70086,
            "lng": -122.32378,
            "languages": [],
            "npi": "1225112949",
            "name": "STACY GLOBERMAN",
            "specialty": "FAMILY MEDICINE"
        },
        {
            "address": "521 E Mountain View Ave, ELLENSBURG, WA 98926",
            "lat": 46.985046,
            "lng": -120.54033,
            "languages": [],
            "npi": "1285779439",
            "name": "BILL POWELL",
            "specialty": "FAMILY MEDICINE"
        },
        {
            "address": "1035 116th Ave NE Rm W324, BELLEVUE, WA 98004",
            "lat": 47.62014,
            "lng": -122.18701,
            "languages": [],
            "npi": "1083723373",
            "name": "CAROLYN MCHUGH",
            "specialty": "INTERNIST"
        },
        {
            "address": "14408 E Sprague Ave, SPOKANE VALLEY, WA 99216",
            "lat": 47.656409,
            "lng": -117.2108,
            "languages": [],
            "npi": "1295788347",
            "name": "CHARLES HAIGH",
            "specialty": "FAMILY MEDICINE"
        },
        {
            "address": "888 Swift Blvd Ste 280, RICHLAND, WA 99352",
            "lat": 46.280469,
            "lng": -119.28164,
            "languages": [],
            "npi": "1245495340",
            "name": "ARWA MARJI",
            "specialty": "INTERNIST"
        },
        {
            "address": "597 Point Brown Ave NW, OCEAN SHORES, WA 98569",
            "lat": 47.002004,
            "lng": -124.16128,
            "languages": [],
            "npi": "1023160223",
            "name": "STEPHEN DRASNIN",
            "specialty": "GENERAL PRACTITIONER"
        },
        {
            "address": "7320 216th St SW Ste 200, EDMONDS, WA 98026",
            "lat": 47.802762,
            "lng": -122.33216,
            "languages": [],
            "npi": "1215999826",
            "name": "LINDA STRONG",
            "specialty": "INTERNIST"
        },
        {
            "address": "1010 Sheridan St Ste 101, PORT TOWNSEND, WA 98368",
            "lat": 48.10697,
            "lng": -122.78982,
            "languages": [],
            "npi": "1124068481",
            "name": "CATHERINE PARKMAN",
            "specialty": "INTERNIST"
        },
        {
            "address": "12333 NE 130th Ln Ste 310, KIRKLAND, WA 98034",
            "lat": 47.71635,
            "lng": -122.17662,
            "languages": [],
            "npi": "1164591889",
            "name": "PRATIMA SHARMA",
            "specialty": "INTERNIST"
        },
        {
            "address": "200 S 2nd St, RENTON, WA 98057",
            "lat": 47.4816,
            "lng": -122.21488,
            "languages": [],
            "npi": "1982671913",
            "name": "KELLY BARBOUR",
            "specialty": "FAMILY MEDICINE"
        },
        {
            "address": "751 NE Blakely Dr Ste 5010, ISSAQUAH, WA 98029",
            "lat": 47.53581,
            "lng": -122.02207,
            "languages": [],
            "npi": "1083637110",
            "name": "JENNIFER SPENCE",
            "specialty": "FAMILY MEDICINE"
        },
        {
            "address": "3950 Keene Rd, WEST RICHLAND, WA 99353",
            "lat": 46.262796,
            "lng": -119.33975,
            "languages": [],
            "npi": "1003874017",
            "name": "JEFFREY KIKI",
            "specialty": "FAMILY MEDICINE"
        },
        {
            "address": "910 W 5th Ave Ste 600, SPOKANE, WA 99204",
            "lat": 47.65207,
            "lng": -117.42586,
            "languages": [],
            "npi": "1639249451",
            "name": "RONDA BECKNER",
            "specialty": "FAMILY MEDICINE"
        },
        {
            "address": "17 S Western Ave, TONASKET, WA 98855",
            "lat": 48.707509,
            "lng": -119.43884,
            "languages": [],
            "npi": "1821017989",
            "name": "DAVID STANGLAND",
            "specialty": "FAMILY MEDICINE"
        },
        {
            "address": "140 E Main St, OTHELLO, WA 99344",
            "lat": 46.826087,
            "lng": -119.17396,
            "languages": [],
            "npi": "1265591523",
            "name": "BASHAR ELALI",
            "specialty": "FAMILY MEDICINE"
        },
        {
            "address": "2211 Queen Anne Ave N, SEATTLE, WA 98109",
            "lat": 47.638803,
            "lng": -122.35732,
            "languages": [],
            "npi": "1598836504",
            "name": "MARIA WISE",
            "specialty": "FAMILY MEDICINE"
        },
        {
            "address": "1600 E Jefferson St Ste 510, SEATTLE, WA 98122",
            "lat": 47.606504,
            "lng": -122.31102,
            "languages": [],
            "npi": "1972591873",
            "name": "CHRISTOPHER CHAN",
            "specialty": "FAMILY MEDICINE"
        },
        {
            "address": "1200 E Columbia Ave, COLVILLE, WA 99114",
            "lat": 48.5414,
            "lng": -117.89164,
            "languages": [],
            "npi": "1528379518",
            "name": "KATRINA GARDNER",
            "specialty": "FAMILY MEDICINE"
        },
        {
            "address": "7205 265th St NW, STANWOOD, WA 98292",
            "lat": 48.237664,
            "lng": -122.33093,
            "languages": [],
            "npi": "1235281718",
            "name": "ANA HERNANDEZ",
            "specialty": "FAMILY MEDICINE"
        },
        {
            "address": "504 N 40th Ave, YAKIMA, WA 98908",
            "lat": 46.605709,
            "lng": -120.56312,
            "languages": [],
            "npi": "1083638001",
            "name": "JEFFREY KAPLAN",
            "specialty": "FAMILY MEDICINE"
        },
        {
            "address": "1400 N Laventure Rd, MOUNT VERNON, WA 98273",
            "lat": 48.433441,
            "lng": -122.31295,
            "languages": [],
            "npi": "1780730135",
            "name": "LIN SHAN",
            "specialty": "FAMILY MEDICINE"
        },
        {
            "address": "16315 NE 87th St Ste B6, REDMOND, WA 98052",
            "lat": 47.67947,
            "lng": -122.123,
            "languages": [],
            "npi": "1912131913",
            "name": "KIMBERLY SIMMONS",
            "specialty": "FAMILY MEDICINE"
        },
        {
            "address": "101 W 8th Ave, SPOKANE, WA 99204",
            "lat": 47.648884,
            "lng": -117.41267,
            "languages": [],
            "npi": "1093886061",
            "name": "LINDSEY DUNHAM",
            "specialty": "INTERNIST"
        },
        {
            "address": "2204 E 29th Ave Ste 202, SPOKANE, WA 99203",
            "lat": 47.63,
            "lng": -117.4018,
            "languages": [],
            "npi": "1669455770",
            "name": "ROXIE HARTWIG",
            "specialty": "FAMILY MEDICINE"
        },
        {
            "address": "560 Gage Blvd Ste 101, RICHLAND, WA 99352",
            "lat": 46.22797,
            "lng": -119.26412,
            "languages": [],
            "npi": "1598751729",
            "name": "BYRON BURRUP",
            "specialty": "FAMILY MEDICINE"
        },
        {
            "address": "560 Gage Blvd Ste 101, RICHLAND, WA 99352",
            "lat": 46.22797,
            "lng": -119.26412,
            "languages": [],
            "npi": "1609976208",
            "name": "CHARLES KRAUSE",
            "specialty": "FAMILY MEDICINE"
        },
        {
            "address": "3154 E 29th Ave Ste A, SPOKANE, WA 99223",
            "lat": 47.627915,
            "lng": -117.36346,
            "languages": [],
            "npi": "1710053665",
            "name": "MARY BERGUM",
            "specialty": "FAMILY MEDICINE"
        },
        {
            "address": "1412 SW 43rd St Ste 200, RENTON, WA 98057",
            "lat": 47.441809,
            "lng": -122.23373,
            "languages": [],
            "npi": "1942257951",
            "name": "FLAVIA CONSTANTIN",
            "specialty": "FAMILY MEDICINE"
        },
        {
            "address": "9800 4th Ave NE, SEATTLE, WA 98115",
            "lat": 47.70086,
            "lng": -122.32378,
            "languages": [],
            "npi": "1841423852",
            "name": "SCOTT ITANO",
            "specialty": "FAMILY MEDICINE"
        },
        {
            "address": "1015 25th St, ANACORTES, WA 98221",
            "lat": 48.50183,
            "lng": -122.61367,
            "languages": [],
            "npi": "1558517623",
            "name": "DAVID BROWN",
            "specialty": "INTERNIST"
        },
        {
            "address": "415 N 85th St, SEATTLE, WA 98103",
            "lat": 47.690213,
            "lng": -122.35344,
            "languages": [],
            "npi": "1417057407",
            "name": "KRISTEN KELLY",
            "specialty": "FAMILY MEDICINE"
        },
        {
            "address": "7440 Pacific Ave, TACOMA, WA 98408",
            "lat": 47.188738,
            "lng": -122.43563,
            "languages": [],
            "npi": "1467483628",
            "name": "LEE BOURDEAU",
            "specialty": "GENERAL PRACTITIONER"
        },
        {
            "address": "509 Olive Way Ste 1607, SEATTLE, WA 98101",
            "lat": 47.61278,
            "lng": -122.33655,
            "languages": [],
            "npi": "1023085495",
            "name": "CHRIS GAYNOR",
            "specialty": "FAMILY MEDICINE"
        },
        {
            "address": "5350 Tallman Ave NW Ste 301, SEATTLE, WA 98107",
            "lat": 47.667946,
            "lng": -122.38044,
            "languages": [],
            "npi": "1326155136",
            "name": "MARGAUX EMANUEL",
            "specialty": "FAMILY MEDICINE"
        },
        {
            "address": "915 Sheridan St Ste B103, PORT TOWNSEND, WA 98368",
            "lat": 48.10696,
            "lng": -122.79069,
            "languages": [],
            "npi": "1265485353",
            "name": "MOLLY HONG",
            "specialty": "FAMILY MEDICINE"
        },
        {
            "address": "504 N 40th Ave, YAKIMA, WA 98908",
            "lat": 46.605709,
            "lng": -120.56312,
            "languages": [],
            "npi": "1205857331",
            "name": "AMANDA RYDER",
            "specialty": "FAMILY MEDICINE"
        },
        {
            "address": "820 N Chelan Ave, WENATCHEE, WA 98801",
            "lat": 47.43356,
            "lng": -120.32279,
            "languages": [],
            "npi": "1871520536",
            "name": "CHARLES BRICKER",
            "specialty": "INTERNIST"
        },
        {
            "address": "21911 76th Ave W Ste 110, EDMONDS, WA 98026",
            "lat": 47.800358,
            "lng": -122.33486,
            "languages": [],
            "npi": "1801117494",
            "name": "GENEVIEVE HANN",
            "specialty": "FAMILY MEDICINE"
        },
        {
            "address": "104 W 5th Ave Ste 200W, SPOKANE, WA 99204",
            "lat": 47.651758,
            "lng": -117.41415,
            "languages": [],
            "npi": "1093767303",
            "name": "JEREMY GRAHAM",
            "specialty": "INTERNIST"
        },
        {
            "address": "8980 161st Ave NE Ste 400, REDMOND, WA 98052",
            "lat": 47.682073,
            "lng": -122.12548,
            "languages": [],
            "npi": "1659353092",
            "name": "SABRINA YON",
            "specialty": "FAMILY MEDICINE"
        },
        {
            "address": "21601 76th Ave W, EDMONDS, WA 98026",
            "lat": 47.801907,
            "lng": -122.33316,
            "languages": [],
            "npi": "1194762922",
            "name": "VASANTHI GOWRI",
            "specialty": "INTERNIST"
        },
        {
            "address": "14434 Ambaum Blvd SW Ste 5, BURIEN, WA 98166",
            "lat": 47.472935,
            "lng": -122.34667,
            "languages": [],
            "npi": "1487717229",
            "name": "LARA HODEL",
            "specialty": "FAMILY MEDICINE"
        },
        {
            "address": "714 W Pine St, NEWPORT, WA 99156",
            "lat": 48.182162,
            "lng": -117.05156,
            "languages": [],
            "npi": "1578655866",
            "name": "GEOFFRY JONES",
            "specialty": "FAMILY MEDICINE"
        },
        {
            "address": "1830 Bickford Ave Ste 211, SNOHOMISH, WA 98290",
            "lat": 47.93457,
            "lng": -122.10482,
            "languages": [],
            "npi": "1255438339",
            "name": "INGRID ACUNA-EATON",
            "specialty": "FAMILY MEDICINE"
        },
        {
            "address": "1370 116th Ave NE Ste 106, BELLEVUE, WA 98004",
            "lat": 47.6189,
            "lng": -122.1999,
            "languages": [],
            "npi": "1679622690",
            "name": "ROSS MCMAHON",
            "specialty": "INTERNIST"
        },
        {
            "address": "1200 E Columbia Ave, COLVILLE, WA 99114",
            "lat": 48.5414,
            "lng": -117.89164,
            "languages": [],
            "npi": "1780672725",
            "name": "EDWARD JOHNSON",
            "specialty": "FAMILY MEDICINE"
        },
        {
            "address": "910 W 5th Ave Ste 600, SPOKANE, WA 99204",
            "lat": 47.65207,
            "lng": -117.42586,
            "languages": [],
            "npi": "1811162969",
            "name": "MELISSA QUISANO",
            "specialty": "FAMILY MEDICINE"
        },
        {
            "address": "9398 Ridgetop Blvd NW, SILVERDALE, WA 98383",
            "lat": 47.582163,
            "lng": -122.62645,
            "languages": [],
            "npi": "1982695219",
            "name": "TIFFIN CLEGG",
            "specialty": "FAMILY MEDICINE"
        },
        {
            "address": "888 Swift Blvd Ste 280, RICHLAND, WA 99352",
            "lat": 46.280469,
            "lng": -119.28164,
            "languages": [],
            "npi": "1306076591",
            "name": "LARISSA MEDINA",
            "specialty": "INTERNIST"
        },
        {
            "address": "403 S Granite Ave, GRANITE FALLS, WA 98252",
            "lat": 48.079454,
            "lng": -121.96883,
            "languages": [],
            "npi": "1265497853",
            "name": "BARRY TANNE",
            "specialty": "FAMILY MEDICINE"
        },
        {
            "address": "1010 Sheridan St Ste 101, PORT TOWNSEND, WA 98368",
            "lat": 48.107196,
            "lng": -122.79016,
            "languages": [],
            "npi": "1992758312",
            "name": "CLAUS JANSSEN",
            "specialty": "FAMILY MEDICINE"
        },
        {
            "address": "915 Sheridan St Ste B103, PORT TOWNSEND, WA 98368",
            "lat": 48.10696,
            "lng": -122.79069,
            "languages": [],
            "npi": "1164475554",
            "name": "TODD CARLSON",
            "specialty": "FAMILY MEDICINE"
        },
        {
            "address": "16528 E Desmet Ct Ste B3100, SPOKANE VALLEY, WA 99016",
            "lat": 47.6532,
            "lng": -117.1564,
            "languages": [],
            "npi": "1114984531",
            "name": "RITA SNOW",
            "specialty": "INTERNIST"
        },
        {
            "address": "1909 214th St SE Ste 110, BOTHELL, WA 98021",
            "lat": 47.80438,
            "lng": -122.20678,
            "languages": [],
            "npi": "1306872593",
            "name": "AMY HOING",
            "specialty": "FAMILY MEDICINE"
        },
        {
            "address": "7210 Roosevelt Way NE, SEATTLE, WA 98115",
            "lat": 47.681205,
            "lng": -122.31717,
            "languages": [],
            "npi": "1033293741",
            "name": "KEN ANDERSON",
            "specialty": "FAMILY MEDICINE"
        },
        {
            "address": "751 NE Blakely Dr Ste 5010, ISSAQUAH, WA 98029",
            "lat": 47.53581,
            "lng": -122.02207,
            "languages": [],
            "npi": "1023069317",
            "name": "NEETI MITTAL",
            "specialty": "INTERNIST"
        },
        {
            "address": "1326 N Stanford Ln, LIBERTY LAKE, WA 99019",
            "lat": 47.66953,
            "lng": -117.10896,
            "languages": [],
            "npi": "1801831235",
            "name": "GLEN VOLYN",
            "specialty": "FAMILY MEDICINE"
        },
        {
            "address": "104 W 5th Ave Ste 200W, SPOKANE, WA 99204",
            "lat": 47.651758,
            "lng": -117.41415,
            "languages": [],
            "npi": "1477816502",
            "name": "ELIZABETH STUHLMILLER",
            "specialty": "INTERNIST"
        },
        {
            "address": "3400 California Ave SW Ste 300, SEATTLE, WA 98116",
            "lat": 47.572713,
            "lng": -122.3864,
            "languages": [],
            "npi": "1225113566",
            "name": "BRUCE BONSACK",
            "specialty": "INTERNIST"
        },
        {
            "address": "840 E Hill Ave, MOSES LAKE, WA 98837",
            "lat": 47.12186,
            "lng": -119.26557,
            "languages": [],
            "npi": "1336174663",
            "name": "EVAN GRAHAM",
            "specialty": "INTERNIST"
        },
        {
            "address": "2555 Marvin Rd NE, LACEY, WA 98516",
            "lat": 47.070824,
            "lng": -122.77305,
            "languages": [],
            "npi": "1043523053",
            "name": "MELISSA PURTTEMAN",
            "specialty": "FAMILY MEDICINE"
        },
        {
            "address": "509 Olive Way Ste 1607, SEATTLE, WA 98101",
            "lat": 47.61278,
            "lng": -122.33655,
            "languages": [],
            "npi": "1578640108",
            "name": "ALISON KNEISL",
            "specialty": "FAMILY MEDICINE"
        },
        {
            "address": "1200 E Columbia Ave, COLVILLE, WA 99114",
            "lat": 48.5414,
            "lng": -117.89164,
            "languages": [],
            "npi": "1093703100",
            "name": "DEBORAH MONTOWSKI",
            "specialty": "FAMILY MEDICINE"
        },
        {
            "address": "510 W 1st Ave, TOPPENISH, WA 98948",
            "lat": 46.374977,
            "lng": -120.31581,
            "languages": [],
            "npi": "1982790176",
            "name": "KYLE HEISEY",
            "specialty": "FAMILY MEDICINE"
        },
        {
            "address": "17311 135th Ave NE Ste A700, WOODINVILLE, WA 98072",
            "lat": 47.752799,
            "lng": -122.1603,
            "languages": [],
            "npi": "1629075650",
            "name": "STEVEN MONTAGUE",
            "specialty": "FAMILY MEDICINE"
        },
        {
            "address": "504 N 40th Ave, YAKIMA, WA 98908",
            "lat": 46.605709,
            "lng": -120.56312,
            "languages": [],
            "npi": "1871588921",
            "name": "NATHANIEL DAVENPORT",
            "specialty": "FAMILY MEDICINE"
        },
        {
            "address": "24604 104th Ave SE Ste 201, KENT, WA 98030",
            "lat": 47.387414,
            "lng": -122.20511,
            "languages": [],
            "npi": "1437215472",
            "name": "SUI TWE",
            "specialty": "FAMILY MEDICINE"
        },
        {
            "address": "2555 Marvin Rd NE, LACEY, WA 98516",
            "lat": 47.070824,
            "lng": -122.77305,
            "languages": [],
            "npi": "1649487182",
            "name": "MEGHAN DUFFIE",
            "specialty": "FAMILY MEDICINE"
        },
        {
            "address": "1830 Bickford Ave Ste 211, SNOHOMISH, WA 98290",
            "lat": 47.93457,
            "lng": -122.10482,
            "languages": [],
            "npi": "1801831896",
            "name": "STEVEN GRANT",
            "specialty": "FAMILY MEDICINE"
        },
        {
            "address": "214 SW Main St, WILBUR, WA 99185",
            "lat": 47.770981,
            "lng": -118.69862,
            "languages": [],
            "npi": "1194768283",
            "name": "RALPH MONTEAGUDO",
            "specialty": "FAMILY MEDICINE"
        },
        {
            "address": "7205 265th St NW, STANWOOD, WA 98292",
            "lat": 48.237664,
            "lng": -122.33093,
            "languages": [],
            "npi": "1174556872",
            "name": "SARA RAHMAN",
            "specialty": "INTERNIST"
        },
        {
            "address": "1806 W Lincoln Ave, YAKIMA, WA 98902",
            "lat": 46.602905,
            "lng": -120.53392,
            "languages": [],
            "npi": "1710901731",
            "name": "JUDY HARVEY",
            "specialty": "FAMILY MEDICINE"
        },
        {
            "address": "33507 9th Ave S Ste A, FEDERAL WAY, WA 98003",
            "lat": 47.30095,
            "lng": -122.32336,
            "languages": [],
            "npi": "1922101500",
            "name": "YOUNG LEE",
            "specialty": "INTERNIST"
        },
        {
            "address": "401 W Poplar St, WALLA WALLA, WA 99362",
            "lat": 46.063483,
            "lng": -118.34082,
            "languages": [],
            "npi": "1538240304",
            "name": "PAUL PARKER",
            "specialty": "INTERNIST"
        },
        {
            "address": "1603 N Belt St, SPOKANE, WA 99205",
            "lat": 47.672241,
            "lng": -117.41407,
            "languages": [],
            "npi": "1225118714",
            "name": "LYLANYA COX",
            "specialty": "FAMILY MEDICINE"
        },
        {
            "address": "1010 S Scheuber Rd Ste 3, CENTRALIA, WA 98531",
            "lat": 46.712036,
            "lng": -122.98684,
            "languages": [],
            "npi": "1861584864",
            "name": "CRAIG FLEMING",
            "specialty": "INTERNIST"
        },
        {
            "address": "14434 Ambaum Blvd SW Ste 5, BURIEN, WA 98166",
            "lat": 47.472935,
            "lng": -122.34667,
            "languages": [],
            "npi": "1952455404",
            "name": "JULIAN PEREZ",
            "specialty": "FAMILY MEDICINE"
        },
        {
            "address": "380 Chase Ave, WALLA WALLA, WA 99362",
            "lat": 46.0606,
            "lng": -118.34155,
            "languages": [],
            "npi": "1669478137",
            "name": "ROBERT MORASCH",
            "specialty": "FAMILY MEDICINE"
        },
        {
            "address": "1215 S Miller St, WENATCHEE, WA 98801",
            "lat": 47.40657,
            "lng": -120.3238,
            "languages": [],
            "npi": "1407852403",
            "name": "DAVID KOLDE",
            "specialty": "FAMILY MEDICINE"
        },
        {
            "address": "1010 Sheridan St Ste 202, PORT TOWNSEND, WA 98368",
            "lat": 48.107196,
            "lng": -122.79016,
            "languages": [],
            "npi": "1932259587",
            "name": "STEPHEN ERICKSON",
            "specialty": "FAMILY MEDICINE"
        },
        {
            "address": "21911 76th Ave W Ste 110, EDMONDS, WA 98026",
            "lat": 47.800358,
            "lng": -122.33486,
            "languages": [],
            "npi": "1063463636",
            "name": "CATHERINE ZEH",
            "specialty": "FAMILY MEDICINE"
        },
        {
            "address": "9 E 1st Ave Ste 4, SELAH, WA 98942",
            "lat": 46.653198,
            "lng": -120.52953,
            "languages": [],
            "npi": "1508876632",
            "name": "ROBERT KUHNS",
            "specialty": "FAMILY MEDICINE"
        },
        {
            "address": "2214 E 29th Ave, SPOKANE, WA 99203",
            "lat": 47.628122,
            "lng": -117.37857,
            "languages": [],
            "npi": "1205828159",
            "name": "CLINTON HAUXWELL",
            "specialty": "FAMILY MEDICINE"
        },
        {
            "address": "21911 76th Ave W Ste 110, EDMONDS, WA 98026",
            "lat": 47.800358,
            "lng": -122.33486,
            "languages": [],
            "npi": "1215240031",
            "name": "ADRIANNA MICKELSON",
            "specialty": "FAMILY MEDICINE"
        },
        {
            "address": "19200 N Kelsey St, MONROE, WA 98272",
            "lat": 47.859588,
            "lng": -121.97454,
            "languages": [],
            "npi": "1124024229",
            "name": "ELLEN KIM",
            "specialty": "INTERNIST"
        },
        {
            "address": "8980 161st Ave NE Ste 400, REDMOND, WA 98052",
            "lat": 47.682073,
            "lng": -122.12548,
            "languages": [],
            "npi": "1538281530",
            "name": "WILSON CHAN",
            "specialty": "FAMILY MEDICINE"
        },
        {
            "address": "17 S Western Ave, TONASKET, WA 98855",
            "lat": 48.707509,
            "lng": -119.43884,
            "languages": [],
            "npi": "1275793804",
            "name": "PAUL LACEY",
            "specialty": "FAMILY MEDICINE"
        },
        {
            "address": "3815 S Othello St Fl 2, SEATTLE, WA 98118",
            "lat": 47.53685,
            "lng": -122.28405,
            "languages": [],
            "npi": "1376714097",
            "name": "BETH WEITENSTEINER",
            "specialty": "FAMILY MEDICINE"
        },
        {
            "address": "509 Olive Way Ste 1607, SEATTLE, WA 98101",
            "lat": 47.61278,
            "lng": -122.33655,
            "languages": [],
            "npi": "1497863005",
            "name": "COURTNEY JOHNSON",
            "specialty": "FAMILY MEDICINE"
        },
        {
            "address": "3400 California Ave SW Ste 300, SEATTLE, WA 98116",
            "lat": 47.572713,
            "lng": -122.3864,
            "languages": [],
            "npi": "1003991340",
            "name": "MARTHA HYDE",
            "specialty": "INTERNIST"
        },
        {
            "address": "662 S Jackson St Ste A, SEATTLE, WA 98104",
            "lat": 47.59935,
            "lng": -122.32453,
            "languages": [],
            "npi": "1427231323",
            "name": "GENE LIAW",
            "specialty": "GENERAL PRACTITIONER"
        },
        {
            "address": "22707 SE 29th St Bldg C, SAMMAMISH, WA 98075",
            "lat": 47.584049,
            "lng": -122.03629,
            "languages": [],
            "npi": "1932261682",
            "name": "DAVID PONG",
            "specialty": "INTERNIST"
        },
        {
            "address": "1600 E Jefferson St Ste 510, SEATTLE, WA 98122",
            "lat": 47.606504,
            "lng": -122.31102,
            "languages": [],
            "npi": "1487738100",
            "name": "JAMES MCHUGH",
            "specialty": "FAMILY MEDICINE"
        },
        {
            "address": "1990 Hospital Dr Ste 100, SEDRO WOOLLEY, WA 98284",
            "lat": 48.495411,
            "lng": -122.27505,
            "languages": [],
            "npi": "1083690333",
            "name": "GILSON GIROTTO",
            "specialty": "FAMILY MEDICINE"
        },
        {
            "address": "930 N Broadway Fl 1, EVERETT, WA 98201",
            "lat": 48.004852,
            "lng": -122.19878,
            "languages": [],
            "npi": "1003870023",
            "name": "TIMOTHY MCNAMARA",
            "specialty": "FAMILY MEDICINE"
        },
        {
            "address": "12917 SE 38th St Ste 100, BELLEVUE, WA 98006",
            "lat": 47.575781,
            "lng": -122.16752,
            "languages": [],
            "npi": "1174575518",
            "name": "JANICE BISHOP",
            "specialty": "FAMILY MEDICINE"
        },
        {
            "address": "7210 Roosevelt Way NE, SEATTLE, WA 98115",
            "lat": 47.681205,
            "lng": -122.31717,
            "languages": [],
            "npi": "1629142922",
            "name": "MICHAEL SHAMSELDIN",
            "specialty": "FAMILY MEDICINE"
        },
        {
            "address": "914 S Scheuber Rd, CENTRALIA, WA 98531",
            "lat": 46.712654,
            "lng": -122.98504,
            "languages": [],
            "npi": "1649267196",
            "name": "LOREN COOPER",
            "specialty": "INTERNIST"
        },
        {
            "address": "14434 Ambaum Blvd SW Ste 5, BURIEN, WA 98166",
            "lat": 47.472935,
            "lng": -122.34667,
            "languages": [],
            "npi": "1497808745",
            "name": "MARIO RIBAS",
            "specialty": "GENERAL PRACTITIONER"
        },
        {
            "address": "19200 N Kelsey St, MONROE, WA 98272",
            "lat": 47.859588,
            "lng": -121.97454,
            "languages": [],
            "npi": "1639360662",
            "name": "JULIE JUNGLES",
            "specialty": "INTERNIST"
        },
        {
            "address": "14720 Main St NE Ste 109, DUVALL, WA 98019",
            "lat": 47.73429,
            "lng": -121.98661,
            "languages": [],
            "npi": "1821070285",
            "name": "SHERMAN LEE",
            "specialty": "FAMILY MEDICINE"
        },
        {
            "address": "12333 NE 130th Ln Ste 310, KIRKLAND, WA 98034",
            "lat": 47.71635,
            "lng": -122.17662,
            "languages": [],
            "npi": "1639355209",
            "name": "RACHNA GADHOK",
            "specialty": "INTERNIST"
        },
        {
            "address": "400 E 5th Ave Frnt, SPOKANE, WA 99202",
            "lat": 47.651646,
            "lng": -117.40453,
            "languages": [],
            "npi": "1326031584",
            "name": "JOSEPH MICHELS",
            "specialty": "INTERNIST"
        },
        {
            "address": "11603 State Ave Ste G, MARYSVILLE, WA 98271",
            "lat": 48.100342,
            "lng": -122.17374,
            "languages": [],
            "npi": "1104869429",
            "name": "BERNADETH GONZALES",
            "specialty": "FAMILY MEDICINE"
        },
        {
            "address": "1230 7th Ave, LONGVIEW, WA 98632",
            "lat": 46.133508,
            "lng": -122.92576,
            "languages": [],
            "npi": "1124217716",
            "name": "FRANCISCO CHAN JR",
            "specialty": "FAMILY MEDICINE"
        },
        {
            "address": "720 8th Ave S Ste 100, SEATTLE, WA 98104",
            "lat": 47.5965,
            "lng": -122.32233,
            "languages": [],
            "npi": "1053429654",
            "name": "NANCY SNAPP",
            "specialty": "FAMILY MEDICINE"
        },
        {
            "address": "525 Lilly Rd NE, OLYMPIA, WA 98506",
            "lat": 47.053285,
            "lng": -122.84451,
            "languages": [],
            "npi": "1336292770",
            "name": "MARIEL PLAEGER-BROCKWA",
            "specialty": "FAMILY MEDICINE"
        },
        {
            "address": "200 S 2nd St, RENTON, WA 98057",
            "lat": 47.4816,
            "lng": -122.21488,
            "languages": [],
            "npi": "1972720043",
            "name": "DINELLE PINEDA",
            "specialty": "FAMILY MEDICINE"
        },
        {
            "address": "13020 Meridian Ave S Fl 2, EVERETT, WA 98208",
            "lat": 47.87871,
            "lng": -122.23472,
            "languages": [],
            "npi": "1073502829",
            "name": "RUTH FREEMAN",
            "specialty": "INTERNIST"
        },
        {
            "address": "19917 7th Ave NE Ste 205, POULSBO, WA 98370",
            "lat": 47.74412,
            "lng": -122.64068,
            "languages": [],
            "npi": "1609991926",
            "name": "DONNAVILLE ORTIZ",
            "specialty": "FAMILY MEDICINE"
        },
        {
            "address": "1001 4th Ave Ste 420, SEATTLE, WA 98154",
            "lat": 47.606207,
            "lng": -122.33269,
            "languages": [],
            "npi": "1568547800",
            "name": "JOHN MOEN",
            "specialty": "INTERNIST"
        },
        {
            "address": "104 W 5th Ave Ste 200W, SPOKANE, WA 99204",
            "lat": 47.651758,
            "lng": -117.41415,
            "languages": [],
            "npi": "1922256478",
            "name": "DAWIT GEBREKIDAN",
            "specialty": "INTERNIST"
        },
        {
            "address": "12509 E Mission Ave Ste 202, SPOKANE VALLEY, WA 99216",
            "lat": 47.672153,
            "lng": -117.23647,
            "languages": [],
            "npi": "1902972854",
            "name": "PETER RINALDI",
            "specialty": "FAMILY MEDICINE"
        },
        {
            "address": "607 N 4th St, MOUNT VERNON, WA 98273",
            "lat": 48.426394,
            "lng": -122.33547,
            "languages": [],
            "npi": "1881680148",
            "name": "CARL BERLINER",
            "specialty": "FAMILY MEDICINE"
        },
        {
            "address": "521 E Mountain View Ave, ELLENSBURG, WA 98926",
            "lat": 46.985046,
            "lng": -120.54033,
            "languages": [],
            "npi": "1366753428",
            "name": "MICAHLYN POWERS",
            "specialty": "FAMILY MEDICINE"
        },
        {
            "address": "1750 112th Ave NE Ste D160, BELLEVUE, WA 98004",
            "lat": 47.6258,
            "lng": -122.19005,
            "languages": [],
            "npi": "1992807499",
            "name": "TATYANA KUTSY",
            "specialty": "FAMILY MEDICINE"
        },
        {
            "address": "24920 104th Ave SE Ste 100, KENT, WA 98030",
            "lat": 47.37837,
            "lng": -122.20098,
            "languages": [],
            "npi": "1407140056",
            "name": "JOHNNY SHUM",
            "specialty": "FAMILY MEDICINE"
        },
        {
            "address": "104 W 5th Ave Ste 200W, SPOKANE, WA 99204",
            "lat": 47.651758,
            "lng": -117.41415,
            "languages": [],
            "npi": "1760467989",
            "name": "SAMUEL PALPANT",
            "specialty": "INTERNIST"
        },
        {
            "address": "380 Chase Ave, WALLA WALLA, WA 99362",
            "lat": 46.0606,
            "lng": -118.34155,
            "languages": [],
            "npi": "1457375206",
            "name": "BRUCE BARGA",
            "specialty": "INTERNIST"
        },
        {
            "address": "912 32nd St Ste A, ANACORTES, WA 98221",
            "lat": 48.496495,
            "lng": -122.60979,
            "languages": [],
            "npi": "1447345806",
            "name": "ALLEN HORESH",
            "specialty": "INTERNIST"
        },
        {
            "address": "1600 E Jefferson St Ste 510, SEATTLE, WA 98122",
            "lat": 47.606504,
            "lng": -122.31102,
            "languages": [],
            "npi": "1427161744",
            "name": "PHILIP CAPP",
            "specialty": "FAMILY MEDICINE"
        },
        {
            "address": "626 N Mullan Rd Ste 16, SPOKANE VALLEY, WA 99206",
            "lat": 47.663393,
            "lng": -117.28131,
            "languages": [],
            "npi": "1114097920",
            "name": "BRIAN ZERANSKI",
            "specialty": "FAMILY MEDICINE"
        },
        {
            "address": "380 Winslow Way E, BAINBRIDGE ISLAND, WA 98110",
            "lat": 47.625013,
            "lng": -122.51776,
            "languages": [],
            "npi": "1730157199",
            "name": "MICHAEL TOMBERG",
            "specialty": "FAMILY MEDICINE"
        },
        {
            "address": "1909 214th St SE Ste 110, BOTHELL, WA 98021",
            "lat": 47.80438,
            "lng": -122.20678,
            "languages": [],
            "npi": "1659353290",
            "name": "JAMES BROWN",
            "specialty": "FAMILY MEDICINE"
        },
        {
            "address": "525 Lilly Rd NE, OLYMPIA, WA 98506",
            "lat": 47.053285,
            "lng": -122.84451,
            "languages": [],
            "npi": "1245428168",
            "name": "YO KONDO",
            "specialty": "FAMILY MEDICINE"
        },
        {
            "address": "820 N Chelan Ave, WENATCHEE, WA 98801",
            "lat": 47.43356,
            "lng": -120.32279,
            "languages": [],
            "npi": "1801821913",
            "name": "RODNEY CRABTREE",
            "specialty": "INTERNIST"
        },
        {
            "address": "3400 California Ave SW Ste 300, SEATTLE, WA 98116",
            "lat": 47.572713,
            "lng": -122.3864,
            "languages": [],
            "npi": "1912082256",
            "name": "JILL SUMMERFIELD",
            "specialty": "INTERNIST"
        },
        {
            "address": "18100 NE Union Hill Rd Ste 200, REDMOND, WA 98052",
            "lat": 47.67684,
            "lng": -122.09907,
            "languages": [],
            "npi": "1376706739",
            "name": "TRIEU LE",
            "specialty": "FAMILY MEDICINE"
        },
        {
            "address": "400 E 5th Ave Frnt, SPOKANE, WA 99202",
            "lat": 47.651646,
            "lng": -117.40453,
            "languages": [],
            "npi": "1477546554",
            "name": "MICHAEL WUKELIC",
            "specialty": "INTERNIST"
        },
        {
            "address": "104 W 5th Ave Ste 200W, SPOKANE, WA 99204",
            "lat": 47.651758,
            "lng": -117.41415,
            "languages": [],
            "npi": "1033191705",
            "name": "GARY NEWKIRK",
            "specialty": "FAMILY MEDICINE"
        },
        {
            "address": "1120 W Rose St, WALLA WALLA, WA 99362",
            "lat": 46.062022,
            "lng": -118.35585,
            "languages": [],
            "npi": "1083791941",
            "name": "EVELYN RODRIGUEZ",
            "specialty": "FAMILY MEDICINE"
        },
        {
            "address": "104 W 5th Ave Ste 200W, SPOKANE, WA 99204",
            "lat": 47.651758,
            "lng": -117.41415,
            "languages": [],
            "npi": "1104137306",
            "name": "DINESH RATTI",
            "specialty": "INTERNIST"
        },
        {
            "address": "19200 N Kelsey St, MONROE, WA 98272",
            "lat": 47.859588,
            "lng": -121.97454,
            "languages": [],
            "npi": "1699866541",
            "name": "JAMES SHEAHAN",
            "specialty": "FAMILY MEDICINE"
        },
        {
            "address": "11603 State Ave Ste G, MARYSVILLE, WA 98271",
            "lat": 48.100342,
            "lng": -122.17374,
            "languages": [],
            "npi": "1063675346",
            "name": "JENNIFER ENGSTROM",
            "specialty": "FAMILY MEDICINE"
        },
        {
            "address": "1806 W Lincoln Ave, YAKIMA, WA 98902",
            "lat": 46.602905,
            "lng": -120.53392,
            "languages": [],
            "npi": "1740289883",
            "name": "DEBRA GOULD",
            "specialty": "FAMILY MEDICINE"
        },
        {
            "address": "712 S Burlington Blvd, BURLINGTON, WA 98233",
            "lat": 48.470666,
            "lng": -122.33518,
            "languages": [],
            "npi": "1144247875",
            "name": "PAUL CREELMAN",
            "specialty": "FAMILY MEDICINE"
        },
        {
            "address": "500 19th Ave E, SEATTLE, WA 98112",
            "lat": 47.623419,
            "lng": -122.307,
            "languages": [],
            "npi": "1154308377",
            "name": "SARAH HUFBAUER",
            "specialty": "FAMILY MEDICINE"
        },
        {
            "address": "602 E Nob Hill Blvd, YAKIMA, WA 98901",
            "lat": 46.58412,
            "lng": -120.49397,
            "languages": [],
            "npi": "1043304371",
            "name": "MICHAEL JACH",
            "specialty": "FAMILY MEDICINE"
        },
        {
            "address": "9927 Mickelberry Rd NW Ste 131, SILVERDALE, WA 98383",
            "lat": 47.6603,
            "lng": -122.6958,
            "languages": [],
            "npi": "1336334986",
            "name": "MICHAEL WALDMAN",
            "specialty": "FAMILY MEDICINE"
        },
        {
            "address": "840 E Hill Ave, MOSES LAKE, WA 98837",
            "lat": 47.12186,
            "lng": -119.26557,
            "languages": [],
            "npi": "1457473456",
            "name": "MARIA CELERIAN",
            "specialty": "FAMILY MEDICINE"
        },
        {
            "address": "605 E Holland Ave Ste 200, SPOKANE, WA 99218",
            "lat": 47.744923,
            "lng": -117.39973,
            "languages": [],
            "npi": "1619982402",
            "name": "PAUL OSMUN",
            "specialty": "FAMILY MEDICINE"
        },
        {
            "address": "101 W 8th Ave, SPOKANE, WA 99204",
            "lat": 47.648884,
            "lng": -117.41267,
            "languages": [],
            "npi": "1467580985",
            "name": "NEDA CYPROVA",
            "specialty": "INTERNIST"
        },
        {
            "address": "747 Broadway Ste WW-147, SEATTLE, WA 98122",
            "lat": 47.60878,
            "lng": -122.3215,
            "languages": [],
            "npi": "1548498157",
            "name": "INNA ANDREWS",
            "specialty": "FAMILY MEDICINE"
        },
        {
            "address": "104 W 5th Ave Ste 200W, SPOKANE, WA 99204",
            "lat": 47.651758,
            "lng": -117.41415,
            "languages": [],
            "npi": "1922081884",
            "name": "JUDY BENSON",
            "specialty": "INTERNIST"
        },
        {
            "address": "915 Sheridan St Ste B103, PORT TOWNSEND, WA 98368",
            "lat": 48.10696,
            "lng": -122.79069,
            "languages": [],
            "npi": "1760587133",
            "name": "RACHEL BICKLING",
            "specialty": "FAMILY MEDICINE"
        },
        {
            "address": "1103 S 2nd Ave Ste B, WALLA WALLA, WA 99362",
            "lat": 46.053927,
            "lng": -118.32975,
            "languages": [],
            "npi": "1053396226",
            "name": "GERALD CRAIGG",
            "specialty": "INTERNIST"
        },
        {
            "address": "1407 116th Ave NE Ste 200, BELLEVUE, WA 98004",
            "lat": 47.623275,
            "lng": -122.18636,
            "languages": [],
            "npi": "1588687354",
            "name": "MARC MITCHELL",
            "specialty": "INTERNIST"
        },
        {
            "address": "400 E 5Th Ave Ste 3 North, SPOKANE, WA 99202",
            "lat": 47.650843,
            "lng": -117.40524,
            "languages": [],
            "npi": "1396850756",
            "name": "MICHAEL HIXON",
            "specialty": "INTERNIST"
        },
        {
            "address": "2902 164th St SW Ste E1, LYNNWOOD, WA 98087",
            "lat": 47.849064,
            "lng": -122.27279,
            "languages": [],
            "npi": "1376856088",
            "name": "XIAOJING SHEN",
            "specialty": "FAMILY MEDICINE"
        },
        {
            "address": "7210 Roosevelt Way NE, SEATTLE, WA 98115",
            "lat": 47.681205,
            "lng": -122.31717,
            "languages": [],
            "npi": "1891704045",
            "name": "CATHERINE SMITH",
            "specialty": "FAMILY MEDICINE"
        },
        {
            "address": "1717 S J St, TACOMA, WA 98405",
            "lat": 47.245487,
            "lng": -122.4486,
            "languages": [],
            "npi": "1376776377",
            "name": "SUNDEEP KOMMIDI",
            "specialty": "FAMILY MEDICINE"
        },
        {
            "address": "2555 Marvin Rd NE, LACEY, WA 98516",
            "lat": 47.070824,
            "lng": -122.77305,
            "languages": [],
            "npi": "1649462102",
            "name": "BHAWNA GUPTA",
            "specialty": "INTERNIST"
        },
        {
            "address": "19125 North Creek Pkwy Ste 204, BOTHELL, WA 98011",
            "lat": 47.7667,
            "lng": -122.1871,
            "languages": [],
            "npi": "1033191549",
            "name": "DANIEL RIEGEL",
            "specialty": "FAMILY MEDICINE"
        },
        {
            "address": "24703 38th Ave S, KENT, WA 98032",
            "lat": 47.380058,
            "lng": -122.28511,
            "languages": [],
            "npi": "1780746172",
            "name": "CHARANJIT LAMBA",
            "specialty": "FAMILY MEDICINE"
        },
        {
            "address": "560 Gage Blvd Ste 101, RICHLAND, WA 99352",
            "lat": 46.22797,
            "lng": -119.26412,
            "languages": [],
            "npi": "1447223904",
            "name": "CHARLES BATAYOLA",
            "specialty": "FAMILY MEDICINE"
        },
        {
            "address": "2120 Rainier Ave S Apt C, SEATTLE, WA 98144",
            "lat": 47.583923,
            "lng": -122.30201,
            "languages": [],
            "npi": "1700822103",
            "name": "DAVID NGUYEN",
            "specialty": "FAMILY MEDICINE"
        },
        {
            "address": "3236 78th Ave SE Ste 200, MERCER ISLAND, WA 98040",
            "lat": 47.580745,
            "lng": -122.23324,
            "languages": [],
            "npi": "1487824215",
            "name": "KENDRA GIL",
            "specialty": "INTERNIST"
        },
        {
            "address": "912 32nd St Ste A, ANACORTES, WA 98221",
            "lat": 48.496495,
            "lng": -122.60979,
            "languages": [],
            "npi": "1386622215",
            "name": "HELEN YOUNG",
            "specialty": "INTERNIST"
        },
        {
            "address": "1321 Colby Ave Ste A2, EVERETT, WA 98201",
            "lat": 47.9997,
            "lng": -122.20766,
            "languages": [],
            "npi": "1689750309",
            "name": "ERIN SUTCLIFFE",
            "specialty": "INTERNIST"
        },
        {
            "address": "930 N Broadway Fl 1, EVERETT, WA 98201",
            "lat": 48.004852,
            "lng": -122.19878,
            "languages": [],
            "npi": "1356394258",
            "name": "MARCIA WHARTON",
            "specialty": "FAMILY MEDICINE"
        },
        {
            "address": "309 E Farwell Rd Ste 204, SPOKANE, WA 99218",
            "lat": 47.77364,
            "lng": -117.40493,
            "languages": [],
            "npi": "1528166766",
            "name": "JEFFREY O'CONNOR",
            "specialty": "FAMILY MEDICINE"
        },
        {
            "address": "13102 E Mission Ave, SPOKANE VALLEY, WA 99216",
            "lat": 47.671539,
            "lng": -117.2289,
            "languages": [],
            "npi": "1992702914",
            "name": "PHILIP WOOLF",
            "specialty": "FAMILY MEDICINE"
        },
        {
            "address": "910 W 5th Ave Ste 600, SPOKANE, WA 99204",
            "lat": 47.65207,
            "lng": -117.42586,
            "languages": [],
            "npi": "1366485633",
            "name": "ADAM SANBORN",
            "specialty": "FAMILY MEDICINE"
        },
        {
            "address": "700 Lilly Rd NE, OLYMPIA, WA 98506",
            "lat": 47.056435,
            "lng": -122.84175,
            "languages": [],
            "npi": "1174610430",
            "name": "MARIUS LAUMANS",
            "specialty": "FAMILY MEDICINE"
        },
        {
            "address": "13020 Meridian Ave S Fl 2, EVERETT, WA 98208",
            "lat": 47.87871,
            "lng": -122.23472,
            "languages": [],
            "npi": "1407017510",
            "name": "LILI YAO",
            "specialty": "INTERNIST"
        },
        {
            "address": "1112 S Cushman Ave, TACOMA, WA 98405",
            "lat": 47.24296,
            "lng": -122.46527,
            "languages": [],
            "npi": "1063564219",
            "name": "MIGUEL BALDERRAMA",
            "specialty": "FAMILY MEDICINE"
        },
        {
            "address": "2001 E Madison St, SEATTLE, WA 98122",
            "lat": 47.617449,
            "lng": -122.30486,
            "languages": [],
            "npi": "1629119706",
            "name": "ANNA KAMINSKI",
            "specialty": "FAMILY MEDICINE"
        },
        {
            "address": "2935 Allen Rd, SUNNYSIDE, WA 98944",
            "lat": 46.309712,
            "lng": -119.97676,
            "languages": [],
            "npi": "1962660704",
            "name": "DEREK WEAVER",
            "specialty": "FAMILY MEDICINE"
        },
        {
            "address": "560 Gage Blvd Ste 102, RICHLAND, WA 99352",
            "lat": 46.227972,
            "lng": -119.26413,
            "languages": [],
            "npi": "1558316372",
            "name": "KYAWT AYEE",
            "specialty": "INTERNIST"
        },
        {
            "address": "1008 S 38th Ave Ste 110, YAKIMA, WA 98902",
            "lat": 46.58706,
            "lng": -120.55995,
            "languages": [],
            "npi": "1164443362",
            "name": "JAN LANGE",
            "specialty": "FAMILY MEDICINE"
        },
        {
            "address": "9398 Ridgetop Blvd NW, SILVERDALE, WA 98383",
            "lat": 47.582163,
            "lng": -122.62645,
            "languages": [],
            "npi": "1750326831",
            "name": "OANH TRUONG",
            "specialty": "FAMILY MEDICINE"
        },
        {
            "address": "560 Gage Blvd Ste 101, RICHLAND, WA 99352",
            "lat": 46.22797,
            "lng": -119.26412,
            "languages": [],
            "npi": "1447311261",
            "name": "JOHN FRIEDLINE",
            "specialty": "FAMILY MEDICINE"
        },
        {
            "address": "101 W 8th Ave, SPOKANE, WA 99204",
            "lat": 47.648884,
            "lng": -117.41267,
            "languages": [],
            "npi": "1306158779",
            "name": "DEXTER PREUGSCHAT",
            "specialty": "INTERNIST"
        },
        {
            "address": "126 Auburn Ave Ste 300/400, AUBURN, WA 98002",
            "lat": 47.308155,
            "lng": -122.22804,
            "languages": [],
            "npi": "1699772434",
            "name": "SUZANNE LAUREL",
            "specialty": "FAMILY MEDICINE"
        },
        {
            "address": "1330 Rockefeller Ave Ste 340, EVERETT, WA 98201",
            "lat": 47.99929,
            "lng": -122.20573,
            "languages": [],
            "npi": "1780606657",
            "name": "ANDRE ZAND",
            "specialty": "INTERNIST"
        },
        {
            "address": "100 Highline Dr, EAST WENATCHEE, WA 98802",
            "lat": 47.404477,
            "lng": -120.28233,
            "languages": [],
            "npi": "1548322456",
            "name": "SHAWN NIXON",
            "specialty": "FAMILY MEDICINE"
        },
        {
            "address": "8720 14th Ave S, SEATTLE, WA 98108",
            "lat": 47.524988,
            "lng": -122.31461,
            "languages": [],
            "npi": "1679626956",
            "name": "PATRICK GEMPERLINE",
            "specialty": "FAMILY MEDICINE"
        },
        {
            "address": "515 W Court St, PASCO, WA 99301",
            "lat": 46.241479,
            "lng": -119.09615,
            "languages": [],
            "npi": "1457331159",
            "name": "JESUS MARCELO",
            "specialty": "INTERNIST"
        },
        {
            "address": "4280 Meridian St Ste 120, BELLINGHAM, WA 98226",
            "lat": 48.795909,
            "lng": -122.48496,
            "languages": [],
            "npi": "1336264761",
            "name": "TSAO WEI",
            "specialty": "FAMILY MEDICINE"
        },
        {
            "address": "3950 Keene Rd, WEST RICHLAND, WA 99353",
            "lat": 46.262796,
            "lng": -119.33975,
            "languages": [],
            "npi": "1851379994",
            "name": "WEI-HSUNG LIN",
            "specialty": "INTERNIST"
        },
        {
            "address": "600 Orondo Ave Ste 1, WENATCHEE, WA 98801",
            "lat": 47.418808,
            "lng": -120.31838,
            "languages": [],
            "npi": "1972594380",
            "name": "KENNETH SHERMER",
            "specialty": "FAMILY MEDICINE"
        },
        {
            "address": "525 Lilly Rd NE, OLYMPIA, WA 98506",
            "lat": 47.053285,
            "lng": -122.84451,
            "languages": [],
            "npi": "1942341417",
            "name": "ROBERT WIDROW",
            "specialty": "INTERNIST"
        },
        {
            "address": "3121 E Madison St Ste 204, SEATTLE, WA 98112",
            "lat": 47.626342,
            "lng": -122.2918,
            "languages": [],
            "npi": "1245327659",
            "name": "SARI DAVISON",
            "specialty": "INTERNIST"
        },
        {
            "address": "1979 Snyder St Ste 150, RICHLAND, WA 99354",
            "lat": 46.313016,
            "lng": -119.28635,
            "languages": [],
            "npi": "1760697460",
            "name": "KAREN PHILLIPS",
            "specialty": "GENERAL PRACTITIONER"
        },
        {
            "address": "121 S Arthur St, SPOKANE, WA 99202",
            "lat": 47.656114,
            "lng": -117.3954,
            "languages": [],
            "npi": "1801878665",
            "name": "ROBERT BRAY",
            "specialty": "FAMILY MEDICINE"
        },
        {
            "address": "3400 California Ave SW Ste 300, SEATTLE, WA 98116",
            "lat": 47.572713,
            "lng": -122.3864,
            "languages": [],
            "npi": "1821173162",
            "name": "RONALD WATSON",
            "specialty": "INTERNIST"
        },
        {
            "address": "475 N 14th Ave, OTHELLO, WA 99344",
            "lat": 46.831196,
            "lng": -119.1545,
            "languages": [],
            "npi": "1285713735",
            "name": "CHRISTOPHER SCHULER",
            "specialty": "FAMILY MEDICINE"
        },
        {
            "address": "13102 E Mission Ave, SPOKANE VALLEY, WA 99216",
            "lat": 47.671539,
            "lng": -117.2289,
            "languages": [],
            "npi": "1295732212",
            "name": "ROBIN MITCHELL",
            "specialty": "FAMILY MEDICINE"
        },
        {
            "address": "2555 Marvin Rd NE, LACEY, WA 98516",
            "lat": 47.070824,
            "lng": -122.77305,
            "languages": [],
            "npi": "1245545854",
            "name": "CHIANTE AMATO",
            "specialty": "FAMILY MEDICINE"
        },
        {
            "address": "1817 12th Ave, SEATTLE, WA 98122",
            "lat": 47.607547,
            "lng": -122.32243,
            "languages": [],
            "npi": "1306838271",
            "name": "JEFFREY OLLIFFE",
            "specialty": "FAMILY MEDICINE"
        },
        {
            "address": "600 Orondo Ave Ste 1, WENATCHEE, WA 98801",
            "lat": 47.418808,
            "lng": -120.31838,
            "languages": [],
            "npi": "1184884884",
            "name": "PATRICK MCLAUGHLIN",
            "specialty": "FAMILY MEDICINE"
        },
        {
            "address": "1325 4th Ave Ste 1240, SEATTLE, WA 98101",
            "lat": 47.608423,
            "lng": -122.33524,
            "languages": [],
            "npi": "1184792178",
            "name": "EILEEN GIBBONS",
            "specialty": "FAMILY MEDICINE"
        },
        {
            "address": "101 W 8th Ave, SPOKANE, WA 99204",
            "lat": 47.648884,
            "lng": -117.41267,
            "languages": [],
            "npi": "1174778401",
            "name": "KAVITHA CHAGANUR",
            "specialty": "INTERNIST"
        },
        {
            "address": "1600 E Jefferson St Ste 115, SEATTLE, WA 98122",
            "lat": 47.606504,
            "lng": -122.31102,
            "languages": [],
            "npi": "1528193398",
            "name": "CHRISTOPHER LEININGER",
            "specialty": "FAMILY MEDICINE"
        },
        {
            "address": "4003 Creekside Loop, YAKIMA, WA 98908",
            "lat": 46.593609,
            "lng": -120.52566,
            "languages": [],
            "npi": "1972531531",
            "name": "SILVIA LABES",
            "specialty": "INTERNIST"
        },
        {
            "address": "2211 Queen Anne Ave N, SEATTLE, WA 98109",
            "lat": 47.638803,
            "lng": -122.35732,
            "languages": [],
            "npi": "1740364462",
            "name": "CLARA CHAN",
            "specialty": "FAMILY MEDICINE"
        },
        {
            "address": "720 S 320th St Ste E, FEDERAL WAY, WA 98003",
            "lat": 47.315884,
            "lng": -122.32459,
            "languages": [],
            "npi": "1902821234",
            "name": "DEBRA KRAFT",
            "specialty": "FAMILY MEDICINE"
        },
        {
            "address": "751 NE Blakely Dr Ste 5010, ISSAQUAH, WA 98029",
            "lat": 47.53581,
            "lng": -122.02207,
            "languages": [],
            "npi": "1427041102",
            "name": "JENNY CHEN",
            "specialty": "FAMILY MEDICINE"
        },
        {
            "address": "358 N Main St, COLVILLE, WA 99114",
            "lat": 48.547057,
            "lng": -117.90559,
            "languages": [],
            "npi": "1053309146",
            "name": "BARRY BACON",
            "specialty": "FAMILY MEDICINE"
        },
        {
            "address": "1001 4th Ave Ste 420, SEATTLE, WA 98154",
            "lat": 47.606207,
            "lng": -122.33269,
            "languages": [],
            "npi": "1255479739",
            "name": "ZAHRA KARMALI",
            "specialty": "FAMILY MEDICINE"
        },
        {
            "address": "3236 78th Ave SE Ste 200, MERCER ISLAND, WA 98040",
            "lat": 47.580745,
            "lng": -122.23324,
            "languages": [],
            "npi": "1134116627",
            "name": "PAUL SYTMAN",
            "specialty": "INTERNIST"
        },
        {
            "address": "1322 3rd St SE Ste 300, PUYALLUP, WA 98372",
            "lat": 47.179314,
            "lng": -122.29116,
            "languages": [],
            "npi": "1760619340",
            "name": "ABIGAIL PLAWMAN",
            "specialty": "FAMILY MEDICINE"
        },
        {
            "address": "916 Koala Ave, OMAK, WA 98841",
            "lat": 48.422438,
            "lng": -119.50376,
            "languages": [],
            "npi": "1437194057",
            "name": "MICHAEL BORDNER",
            "specialty": "FAMILY MEDICINE"
        },
        {
            "address": "7440 Pacific Ave, TACOMA, WA 98408",
            "lat": 47.188738,
            "lng": -122.43563,
            "languages": [],
            "npi": "1447281613",
            "name": "LOUIS ENKEMA JR",
            "specialty": "GENERAL PRACTITIONER"
        },
        {
            "address": "19200 N Kelsey St, MONROE, WA 98272",
            "lat": 47.859588,
            "lng": -121.97454,
            "languages": [],
            "npi": "1750482345",
            "name": "JEFFREY HAMBLETON",
            "specialty": "FAMILY MEDICINE"
        },
        {
            "address": "509 Olive Way Ste 1607, SEATTLE, WA 98101",
            "lat": 47.61278,
            "lng": -122.33655,
            "languages": [],
            "npi": "1245473933",
            "name": "EMMA SWINGEL",
            "specialty": "FAMILY MEDICINE"
        },
        {
            "address": "2555 Marvin Rd NE, LACEY, WA 98516",
            "lat": 47.070824,
            "lng": -122.77305,
            "languages": [],
            "npi": "1972537918",
            "name": "EDWARD JANSEN",
            "specialty": "INTERNIST"
        },
        {
            "address": "2811 Tieton Dr Fl 2, YAKIMA, WA 98902",
            "lat": 46.5936,
            "lng": -120.5474,
            "languages": [],
            "npi": "1720306830",
            "name": "TIBOR MOJZIS",
            "specialty": "INTERNIST"
        },
        {
            "address": "23 E Crawford St Unit B, DEER PARK, WA 99006",
            "lat": 47.954295,
            "lng": -117.47619,
            "languages": [],
            "npi": "1245206358",
            "name": "BASIL GRIFFIN III",
            "specialty": "FAMILY MEDICINE"
        },
        {
            "address": "1450 Northwest Ln SE Ste A, LACEY, WA 98503",
            "lat": 47.033069,
            "lng": -122.83489,
            "languages": [],
            "npi": "1588862098",
            "name": "KIMBERLY ELLIOTT",
            "specialty": "FAMILY MEDICINE"
        },
        {
            "address": "700 Lilly Rd NE, OLYMPIA, WA 98506",
            "lat": 47.056435,
            "lng": -122.84175,
            "languages": [],
            "npi": "1740342104",
            "name": "JULIA SOKOLOFF",
            "specialty": "FAMILY MEDICINE"
        },
        {
            "address": "2124 4th Ave, SEATTLE, WA 98121",
            "lat": 47.614637,
            "lng": -122.34209,
            "languages": [],
            "npi": "1508940222",
            "name": "MAUREEN BROWN",
            "specialty": "FAMILY MEDICINE"
        },
        {
            "address": "17 S Western Ave, TONASKET, WA 98855",
            "lat": 48.707509,
            "lng": -119.43884,
            "languages": [],
            "npi": "1023034725",
            "name": "DOUGLAS WILSON",
            "specialty": "FAMILY MEDICINE"
        },
        {
            "address": "2211 Queen Anne Ave N, SEATTLE, WA 98109",
            "lat": 47.638803,
            "lng": -122.35732,
            "languages": [],
            "npi": "1851456081",
            "name": "FERNANDO IRIZARRY",
            "specialty": "FAMILY MEDICINE"
        },
        {
            "address": "840 E Hill Ave, MOSES LAKE, WA 98837",
            "lat": 47.12186,
            "lng": -119.26557,
            "languages": [],
            "npi": "1255357240",
            "name": "STEVEN WARNER",
            "specialty": "FAMILY MEDICINE"
        },
        {
            "address": "100 W South Ave, CHEWELAH, WA 99109",
            "lat": 48.270058,
            "lng": -117.7174,
            "languages": [],
            "npi": "1720189749",
            "name": "PAUL LARSEN",
            "specialty": "FAMILY MEDICINE"
        },
        {
            "address": "140 E Main St, OTHELLO, WA 99344",
            "lat": 46.826087,
            "lng": -119.17396,
            "languages": [],
            "npi": "1265672281",
            "name": "REBECCA LOCKE",
            "specialty": "FAMILY MEDICINE"
        },
        {
            "address": "3030 Limited Ln NW, OLYMPIA, WA 98502",
            "lat": 47.048719,
            "lng": -122.93946,
            "languages": [],
            "npi": "1093753220",
            "name": "MICHELE MORRISON",
            "specialty": "FAMILY MEDICINE"
        },
        {
            "address": "840 E Hill Ave, MOSES LAKE, WA 98837",
            "lat": 47.12186,
            "lng": -119.26557,
            "languages": [],
            "npi": "1639195985",
            "name": "MARCUS KUBOSUMI",
            "specialty": "INTERNIST"
        },
        {
            "address": "700 NE 87th Ave, VANCOUVER, WA 98664",
            "lat": 45.626154,
            "lng": -122.58368,
            "languages": [],
            "npi": "1508901398",
            "name": "BRITA FELICIANO",
            "specialty": "INTERNIST"
        },
        {
            "address": "12917 SE 38th St Ste 100, BELLEVUE, WA 98006",
            "lat": 47.575781,
            "lng": -122.16752,
            "languages": [],
            "npi": "1497839104",
            "name": "DAVID MCFARLAND",
            "specialty": "FAMILY MEDICINE"
        },
        {
            "address": "126 Auburn Ave Ste 300/400, AUBURN, WA 98002",
            "lat": 47.308155,
            "lng": -122.22804,
            "languages": [],
            "npi": "1629019013",
            "name": "PREETI ASKI",
            "specialty": "FAMILY MEDICINE"
        },
        {
            "address": "42 E Rowan Ave Ste A, SPOKANE, WA 99207",
            "lat": 47.707655,
            "lng": -117.40956,
            "languages": [],
            "npi": "1023097946",
            "name": "PHILIP HENRY",
            "specialty": "FAMILY MEDICINE"
        },
        {
            "address": "560 Gage Blvd Ste 101, RICHLAND, WA 99352",
            "lat": 46.22797,
            "lng": -119.26412,
            "languages": [],
            "npi": "1679676258",
            "name": "WILLIAM KALICHMAN",
            "specialty": "INTERNIST"
        },
        {
            "address": "5350 Tallman Ave NW Ste 301, SEATTLE, WA 98107",
            "lat": 47.667946,
            "lng": -122.38044,
            "languages": [],
            "npi": "1932198892",
            "name": "BRETT DANIEL",
            "specialty": "FAMILY MEDICINE"
        },
        {
            "address": "7320 216th St SW Ste 200, EDMONDS, WA 98026",
            "lat": 47.802762,
            "lng": -122.33216,
            "languages": [],
            "npi": "1912001652",
            "name": "KEITH LUTHER",
            "specialty": "INTERNIST"
        },
        {
            "address": "1001 4th Ave Ste 420, SEATTLE, WA 98154",
            "lat": 47.606207,
            "lng": -122.33269,
            "languages": [],
            "npi": "1912154428",
            "name": "CHRIS ETZKORN",
            "specialty": "FAMILY MEDICINE"
        },
        {
            "address": "380 Chase Ave, WALLA WALLA, WA 99362",
            "lat": 46.0606,
            "lng": -118.34155,
            "languages": [],
            "npi": "1447264841",
            "name": "JON GARDNER",
            "specialty": "INTERNIST"
        },
        {
            "address": "4003 Creekside Loop, YAKIMA, WA 98908",
            "lat": 46.593609,
            "lng": -120.52566,
            "languages": [],
            "npi": "1568486439",
            "name": "PAUL TOMPKINS",
            "specialty": "FAMILY MEDICINE"
        },
        {
            "address": "140 E Main St, OTHELLO, WA 99344",
            "lat": 46.826087,
            "lng": -119.17396,
            "languages": [],
            "npi": "1871679878",
            "name": "DAVID HOFHEINS",
            "specialty": "FAMILY MEDICINE"
        },
        {
            "address": "9245 Rainier Ave S, SEATTLE, WA 98118",
            "lat": 47.519602,
            "lng": -122.26924,
            "languages": [],
            "npi": "1821108275",
            "name": "MARCUS REMPEL",
            "specialty": "FAMILY MEDICINE"
        },
        {
            "address": "1806 W Lincoln Ave, YAKIMA, WA 98902",
            "lat": 46.602905,
            "lng": -120.53392,
            "languages": [],
            "npi": "1578681185",
            "name": "MINDY UDELL",
            "specialty": "FAMILY MEDICINE"
        },
        {
            "address": "104 W 5th Ave Ste 200W, SPOKANE, WA 99204",
            "lat": 47.651758,
            "lng": -117.41415,
            "languages": [],
            "npi": "1447303706",
            "name": "MARY NOBLE",
            "specialty": "INTERNIST"
        },
        {
            "address": "820 S McClellan St Ste 200, SPOKANE, WA 99204",
            "lat": 47.64772,
            "lng": -117.41511,
            "languages": [],
            "npi": "1275516130",
            "name": "SAIMA AHMAD",
            "specialty": "INTERNIST"
        },
        {
            "address": "4003 Creekside Loop, YAKIMA, WA 98908",
            "lat": 46.593609,
            "lng": -120.52566,
            "languages": [],
            "npi": "1629275060",
            "name": "MARTIN BACKER",
            "specialty": "FAMILY MEDICINE"
        },
        {
            "address": "515 Minor Ave Ste 300, SEATTLE, WA 98104",
            "lat": 47.606363,
            "lng": -122.32092,
            "languages": [],
            "npi": "1730265596",
            "name": "GERALD LEE",
            "specialty": "INTERNIST"
        },
        {
            "address": "2031 Pottery Ave, PORT ORCHARD, WA 98366",
            "lat": 47.516876,
            "lng": -122.6518,
            "languages": [],
            "npi": "1700819307",
            "name": "ATIF MIAN",
            "specialty": "INTERNIST"
        },
        {
            "address": "1629 N 45th St, SEATTLE, WA 98103",
            "lat": 47.661085,
            "lng": -122.33774,
            "languages": [],
            "npi": "1649377508",
            "name": "ALLISON FITZGERALD",
            "specialty": "FAMILY MEDICINE"
        },
        {
            "address": "11311 Bridgeport Way SW Ste 204, LAKEWOOD, WA 98499",
            "lat": 47.154424,
            "lng": -122.50376,
            "languages": [],
            "npi": "1790776284",
            "name": "JONATHAN JIN",
            "specialty": "INTERNIST"
        },
        {
            "address": "1629 N 45th St, SEATTLE, WA 98103",
            "lat": 47.661085,
            "lng": -122.33774,
            "languages": [],
            "npi": "1679512487",
            "name": "JOHN OLSON",
            "specialty": "FAMILY MEDICINE"
        },
        {
            "address": "322 S Birch St, MCCLEARY, WA 98557",
            "lat": 47.055863,
            "lng": -123.26033,
            "languages": [],
            "npi": "1003046426",
            "name": "JOHN RODAKOWSKI",
            "specialty": "FAMILY MEDICINE"
        },
        {
            "address": "910 W 5th Ave Ste 600, SPOKANE, WA 99204",
            "lat": 47.65207,
            "lng": -117.42586,
            "languages": [],
            "npi": "1275603094",
            "name": "TAMMY ELLINGSEN",
            "specialty": "FAMILY MEDICINE"
        },
        {
            "address": "42 E Rowan Ave Ste A, SPOKANE, WA 99207",
            "lat": 47.707655,
            "lng": -117.40956,
            "languages": [],
            "npi": "1578542486",
            "name": "JEFFERY TRAIL",
            "specialty": "FAMILY MEDICINE"
        },
        {
            "address": "515 Minor Ave Ste 170, SEATTLE, WA 98104",
            "lat": 47.60631,
            "lng": -122.32177,
            "languages": [],
            "npi": "1669583506",
            "name": "BRITT ANDERSON",
            "specialty": "INTERNIST"
        },
        {
            "address": "125 16th Ave E Fl 4, SEATTLE, WA 98112",
            "lat": 47.618812,
            "lng": -122.31158,
            "languages": [],
            "npi": "1376863258",
            "name": "JENNIFER KLEIN",
            "specialty": "FAMILY MEDICINE"
        },
        {
            "address": "525 Lilly Rd NE Ste 250, OLYMPIA, WA 98506",
            "lat": 47.053285,
            "lng": -122.84451,
            "languages": [],
            "npi": "1457533366",
            "name": "PAUL KNOUFF",
            "specialty": "FAMILY MEDICINE"
        },
        {
            "address": "1470 N 16th Ave, YAKIMA, WA 98902",
            "lat": 46.58586,
            "lng": -120.56272,
            "languages": [],
            "npi": "1740221506",
            "name": "BIJU KUNHIRAMAN",
            "specialty": "INTERNIST"
        },
        {
            "address": "19200 N Kelsey St, MONROE, WA 98272",
            "lat": 47.859588,
            "lng": -121.97454,
            "languages": [],
            "npi": "1891929857",
            "name": "JOHN ABANO",
            "specialty": "FAMILY MEDICINE"
        },
        {
            "address": "3010 S Southeast Blvd Ste A, SPOKANE, WA 99223",
            "lat": 47.62655,
            "lng": -117.37585,
            "languages": [],
            "npi": "1184797821",
            "name": "HAROLD BAILEY",
            "specialty": "FAMILY MEDICINE"
        },
        {
            "address": "1620 Cooper Point Rd SW, OLYMPIA, WA 98502",
            "lat": 47.036645,
            "lng": -122.93972,
            "languages": [],
            "npi": "1699776336",
            "name": "MARGARET MILLER",
            "specialty": "FAMILY MEDICINE"
        },
        {
            "address": "19200 N Kelsey St, MONROE, WA 98272",
            "lat": 47.859588,
            "lng": -121.97454,
            "languages": [],
            "npi": "1699876912",
            "name": "DEBORAH NALTY",
            "specialty": "FAMILY MEDICINE"
        },
        {
            "address": "9245 Rainier Ave S, SEATTLE, WA 98118",
            "lat": 47.519602,
            "lng": -122.26924,
            "languages": [],
            "npi": "1700989183",
            "name": "VALENTINA WARNER",
            "specialty": "FAMILY MEDICINE"
        },
        {
            "address": "311 S 72nd Ave Ste 100, YAKIMA, WA 98908",
            "lat": 46.594257,
            "lng": -120.60359,
            "languages": [],
            "npi": "1922022037",
            "name": "CARL OLDEN",
            "specialty": "FAMILY MEDICINE"
        },
        {
            "address": "3400 California Ave SW Ste 300, SEATTLE, WA 98116",
            "lat": 47.572713,
            "lng": -122.3864,
            "languages": [],
            "npi": "1740352228",
            "name": "MICHAEL KOVAR",
            "specialty": "FAMILY MEDICINE"
        },
        {
            "address": "945 Hildebrand Ln NE Ste 100, BAINBRIDGE ISLAND, WA 98110",
            "lat": 47.633622,
            "lng": -122.51771,
            "languages": [],
            "npi": "1780662171",
            "name": "SARAH RICE",
            "specialty": "FAMILY MEDICINE"
        },
        {
            "address": "504 N 40th Ave, YAKIMA, WA 98908",
            "lat": 46.605709,
            "lng": -120.56312,
            "languages": [],
            "npi": "1538180666",
            "name": "NICOLA BOCEK-LILLEY",
            "specialty": "FAMILY MEDICINE"
        },
        {
            "address": "3020 Rucker Ave Ste 306, EVERETT, WA 98201",
            "lat": 47.977133,
            "lng": -122.21185,
            "languages": [],
            "npi": "1285714279",
            "name": "CHRISTOPHER SPITTERS",
            "specialty": "GENERAL PRACTITIONER"
        },
        {
            "address": "2555 Marvin Rd NE, LACEY, WA 98516",
            "lat": 47.070824,
            "lng": -122.77305,
            "languages": [],
            "npi": "1497887723",
            "name": "JEREMY EATON",
            "specialty": "FAMILY MEDICINE"
        },
        {
            "address": "904 7th Ave Fl 8, SEATTLE, WA 98104",
            "lat": 47.6033,
            "lng": -122.3294,
            "languages": [],
            "npi": "1356313738",
            "name": "BETSY BROWN",
            "specialty": "FAMILY MEDICINE"
        },
        {
            "address": "2902 164th St SW Ste E1, LYNNWOOD, WA 98087",
            "lat": 47.849064,
            "lng": -122.27279,
            "languages": [],
            "npi": "1033134267",
            "name": "EDWARD LEE",
            "specialty": "FAMILY MEDICINE"
        },
        {
            "address": "380 Chase Ave, WALLA WALLA, WA 99362",
            "lat": 46.0606,
            "lng": -118.34155,
            "languages": [],
            "npi": "1558599654",
            "name": "JOHN STODDARD",
            "specialty": "FAMILY MEDICINE"
        },
        {
            "address": "2211 Queen Anne Ave N, SEATTLE, WA 98109",
            "lat": 47.638803,
            "lng": -122.35732,
            "languages": [],
            "npi": "1780789594",
            "name": "JOHN MORRISON",
            "specialty": "INTERNIST"
        },
        {
            "address": "1806 W Lincoln Ave, YAKIMA, WA 98902",
            "lat": 46.602905,
            "lng": -120.53392,
            "languages": [],
            "npi": "1033130646",
            "name": "PAUL EMMANS III",
            "specialty": "FAMILY MEDICINE"
        },
        {
            "address": "7210 Roosevelt Way NE, SEATTLE, WA 98115",
            "lat": 47.681205,
            "lng": -122.31717,
            "languages": [],
            "npi": "1679657381",
            "name": "ANDREW SZALAY",
            "specialty": "FAMILY MEDICINE"
        },
        {
            "address": "751 NE Blakely Dr Ste 5010, ISSAQUAH, WA 98029",
            "lat": 47.53581,
            "lng": -122.02207,
            "languages": [],
            "npi": "1942218185",
            "name": "KATHRYN TONDER",
            "specialty": "FAMILY MEDICINE"
        },
        {
            "address": "18208 66th Ave NE Ste 200, KENMORE, WA 98028",
            "lat": 47.760674,
            "lng": -122.25341,
            "languages": [],
            "npi": "1710969357",
            "name": "TIMOTHY ANDERSON",
            "specialty": "FAMILY MEDICINE"
        },
        {
            "address": "9605 Sandifur Pkwy, PASCO, WA 99301",
            "lat": 46.27856,
            "lng": -119.21576,
            "languages": [],
            "npi": "1912953860",
            "name": "DAVID JONES",
            "specialty": "FAMILY MEDICINE"
        },
        {
            "address": "22707 SE 29th St Bldg C, SAMMAMISH, WA 98075",
            "lat": 47.584049,
            "lng": -122.03629,
            "languages": [],
            "npi": "1619039401",
            "name": "CAROLYN LIU",
            "specialty": "INTERNIST"
        },
        {
            "address": "101 W 8th Ave, SPOKANE, WA 99204",
            "lat": 47.648884,
            "lng": -117.41267,
            "languages": [],
            "npi": "1669631008",
            "name": "JANELLE CLAUSER",
            "specialty": "INTERNIST"
        },
        {
            "address": "22707 SE 29th St Bldg C, SAMMAMISH, WA 98075",
            "lat": 47.584049,
            "lng": -122.03629,
            "languages": [],
            "npi": "1578647285",
            "name": "LUANN CHEN",
            "specialty": "FAMILY MEDICINE"
        },
        {
            "address": "888 Swift Blvd Ste 280, RICHLAND, WA 99352",
            "lat": 46.280469,
            "lng": -119.28164,
            "languages": [],
            "npi": "1326350794",
            "name": "DHANANJAY DEO",
            "specialty": "INTERNIST"
        },